Time,Alpha_L1,Alpha_L2,Alpha_R1,Alpha_R2,AVz,Ay,Bk_Stat,Fx_L1,Fx_L2,Fx_R1,Fx_R2,Fy_L1,Fy_L2,Fy_R1,Fy_R2,Fz_L1,Fz_L2,Fz_R1,Fz_R2,GearStat,Lat_Targ,Lat_Veh,Pitch,PitchGL1,PitchGL2,PitchGR1,PitchGR2,PitchO1,Roll,RollGL1,RollGL2,RollGR1,RollGR2,RollO_1,Roll_E,Roll_L1,Roll_L2,Roll_R1,Roll_R2,Rot_L1,Rot_L2,Rot_R1,Rot_R2,Station,Steer_L1,Steer_R1,Steer_SW,VisO_1,Vx,VxTarget,Vxz_Fwd,Xctc_L1,Xctc_L2,Xctc_R1,Xctc_R2,Xo,X_L1,X_L2,X_Obj_1,X_R1,X_R2,Yaw,YawO_1,Yaw_L1,Yaw_L2,Yaw_R1,Yaw_R2,Yctc_L1,Yctc_L2,Yctc_R1,Yctc_R2,Yo,Y_L1,Y_L2,Y_Obj_1,Y_R1,Y_R2,Zgnd_L1,Zgnd_L2,Zgnd_R1,Zgnd_R2,Zo,Z_L1,Z_L2,Z_Obj_1,Z_R1,Z_R2
0, 8.36383362954e-18, -0, -8.36383362954e-18, -0, 0, 1.932599652923e-20, 0, -2.629323907209e-11, 0, -2.629323907209e-11, 0, -3.29522231126e-19, -0, 3.29522231126e-19, -0, 4705.658697437, 2654.825674813, 4705.658697437, 2654.825674813, 6, 0, 0, 0.1506696057217, -0, -0, -0, -0, -0, 0, 0, 0, 0, 0, 0, 0, 3.180543684351e-15, 0, -3.180543684351e-15, 0, 0.0004185266825604, 0.0004185266825604, 0.0004185266825604, 0.0004185266825604, 0, 0, 0, 0, 1, 120, 120, 120, 0.0008546452433101, -2.909135293117, 0.0008546452433101, -2.909135293117, 0, 0.0008546452433101, -2.909135293117, 16.66666666667, 0.0008546452433101, -2.909135293117, 0, 0, -3.195270793007e-15, 0, 3.195270793007e-15, 0, 0.8375, 0.8375, -0.8375, -0.8375, 0, 0.8375, 0.8375, 0, -0.8375, -0.8375, -0, -0, -0, -0, -0.00855730425281, 0.3164415720245, 0.3240939340492, 0, 0.3164415720245, 0.3240939340492
0.025, -0.0004167706485, 0.0003094869414949, 0.0004167706485, -0.0003094869414949, -7.750046700906e-18, 1.590723145947e-19, 0, -29.30968198498, -14.58537203461, -29.30968198498, -14.58537203461, 0.3466087565685, -0.1922079006805, -0.3466087565685, 0.1922079006805, 4687.875353343, 2659.397599227, 4687.875353343, 2659.397599227, 6, 0, -7.757334349351e-21, 0.1479306458247, -0, -0, -0, -0, -0, -8.314565523671e-19, 0, 0, 0, 0, 0, -8.31459323656e-19, -0.0005059926133648, 0.0003667848218086, 0.0005059926133648, -0.0003667848218086, 0.4083855942329, 0.4083983880462, 0.4083855942329, 0.4083983880462, 0.8332540318204, 0.0002347778309585, -0.0002347778309585, 5.237663088463e-19, 1, 119.9694695618, 120, 119.9690474582, 0.8340905316889, -2.075898176699, 0.8340905316889, -2.075898176699, 0.8332540318204, 0.8340905316774, -2.075898176703, 17.49562173434, 0.8340905316774, -2.075898176703, -6.704736593298e-21, 0, 0.0002360850269949, -0.0001164579821991, -0.0002360850269949, 0.0001164579821991, 0.8374983512408, 0.8375019195292, -0.8374983512408, -0.8375019195292, -7.757334349351e-21, 0.8375011463973, 0.8374998449177, 0, -0.8375011463973, -0.8374998449177, -0, -5.551115123126e-17, -0, -5.551115123126e-17, -0.008449549423427, 0.3165079277737, 0.3240768746231, 0, 0.3165079277737, 0.3240768746231
0.05, -0.001359556843384, 0.0007793785946001, 0.001359556843384, -0.0007793785946001, 2.489793095365e-18, 5.270153876149e-19, 0, -38.3646205319, -14.73008184129, -38.3646205319, -14.73008184129, 1.292462757657, -0.5529824712509, -1.292462757657, 0.5529824712509, 4637.893075144, 2669.241739556, 4637.893075144, 2669.241739556, 6, 0, -7.953943971991e-20, 0.1409655670422, -0, -0, -0, -0, -0, -9.627954655196e-18, 0, 0, 0, 0, 0, -9.627983794955e-18, -0.001752877229219, 0.001114922044122, 0.001752877229219, -0.001114922044122, 0.8162146502867, 0.8162562336947, 0.8162146502867, 0.8162562336947, 1.666326007274, 0.0009489238993666, -0.0009489238993666, 3.963661873407e-18, 1, 119.9372179305, 120, 119.9365444603, 1.667121082078, -1.24286561168, 1.667121082078, -1.24286561168, 1.666326007274, 1.667121081917, -1.242865611727, 18.32417940454, 1.667121081917, -1.242865611727, 5.79231126332e-20, 0, 0.0009532394071808, -0.0004255549907217, -0.0009532394071808, 0.0004255549907217, 0.8374942547118, 0.837505833821, -0.8374942547118, -0.837505833821, -7.953943971991e-20, 0.8375039434961, 0.8374995283042, 0, -0.8375039434961, -0.8374995283042, -5.551115123126e-17, -0, -5.551115123126e-17, -0, -0.008161672811418, 0.3166944286759, 0.3240401427015, 0, 0.3166944286759, 0.3240401427015
0.075, -0.002943328700219, 0.001312504499695, 0.002943328700219, -0.001312504499695, 1.72862609798e-17, -7.852743281329e-19, 0, -47.48147761137, -14.36860059933, -47.48147761137, -14.36860059933, 3.124152479518, -1.007729274512, -3.124152479518, 1.007729274512, 4583.734052945, 2672.195435606, 4583.734052945, 2672.195435606, 6, 0, -1.810646332954e-19, 0.1321695914952, -0, -0, -0, -0, -0, -2.354763866027e-17, 0, 0, 0, 0, 0, -2.354770131244e-17, -0.004124217148213, 0.002167239805653, 0.004124217148213, -0.002167239805653, 1.223900749353, 1.224006970315, 1.223900749353, 1.224006970315, 2.499186473072, 0.002255124360535, -0.002255124360535, 5.62828825367e-18, 1, 119.9038555371, 120, 119.9031591836, 2.499928487185, -0.4100546797614, 2.499928487185, -0.4100546797614, 2.499186473072, 2.499928486284, -0.4100546799616, 19.15240302635, 2.499928486284, -0.4100546799616, 3.253062378727e-19, 0, 0.00226464409914, -0.0009359789872937, -0.00226464409914, 0.0009359789872937, 0.8374863967017, 0.8375113383925, -0.8374863967017, -0.8375113383925, -1.810646332954e-19, 0.837509207283, 0.8374990818386, 0, -0.837509207283, -0.8374990818386, -0, -0, -0, -0, -0.007766868830913, 0.3168965139069, 0.3240291212771, 0, 0.3168965139069, 0.3240291212771
0.1, -0.004987847475617, 0.001392842925812, 0.004987847475617, -0.001392842925812, -1.473701166094e-17, 7.25519337508e-19, 0, -52.86777288165, -14.05131122893, -52.86777288165, -14.05131122893, 5.79562394398, -1.253096285973, -5.79562394398, 1.253096285973, 4545.592746494, 2664.190837302, 4545.592746494, 2664.190837302, 6, 0, -2.374827287229e-19, 0.1239636816471, -0, -0, -0, -0, -0, -3.198091720933e-17, 0, 0, 0, 0, 0, -3.198099206168e-17, -0.007504756800825, 0.002946976576074, 0.007504756800825, -0.002946976576074, 1.631443787101, 1.631643658357, 1.631443787101, 1.631643658357, 3.331806960298, 0.004094125022866, -0.004094125022866, 1.069698032172e-17, 1, 119.8696608871, 120, 119.8691043594, 3.332498347184, 0.4225193831016, 3.332498347184, 0.4225193831016, 3.331806960298, 3.332498344205, 0.4225193827418, 19.98029367688, 3.332498344205, 0.4225193827418, 2.241819197113e-19, 0, 0.004110371730356, -0.001236882605638, -0.004110371730356, 0.001236882605638, 0.8374750467342, 0.8375154206835, -0.8374750467342, -0.8375154206835, -2.374827287229e-19, 0.8375165733413, 0.8374987528895, 0, -0.8375165733413, -0.8374987528895, -0, -5.551115123126e-17, -0, -5.551115123126e-17, -0.007350451355927, 0.3170388303158, 0.3240589889844, 0, 0.3170388303158, 0.3240589889844
0.125, -0.007202559484335, 0.001107615306359, 0.007202559484334, -0.001107615306359, -4.870916387353e-17, 4.389240986253e-18, 0, -53.8702964384, -13.89417709619, -53.8702964384, -13.89417709619, 8.952210666221, -1.112660838423, -8.952210666221, 1.112660838423, 4529.612737528, 2650.649727, 4529.612737528, 2650.649727, 6, 0, -5.254043770962e-19, 0.1175963802015, -0, -0, -0, -0, -0, -6.517942359188e-17, 0, 0, 0, 0, 0, -6.517956087714e-17, -0.01141225489442, 0.002911919104532, 0.01141225489442, -0.002911919104533, 2.038854778029, 2.039161176202, 2.038854778029, 2.039161176202, 4.164172280829, 0.006227333411877, -0.006227333411877, 4.29851277471e-17, 1, 119.8351285124, 120, 119.8347511542, 4.164823104269, 1.254847875901, 4.164823104269, 1.254847875901, 4.164172280829, 4.164823097378, 1.254847875528, 20.80788771892, 4.164823097378, 1.254847875528, -5.819121753529e-19, 0, 0.006250769575711, -0.001294844176614, -0.006250769575711, 0.001294844176614, 0.8374617225571, 0.8375152459244, -0.8374617225571, -0.8375152459244, -5.254043770962e-19, 0.8375248826787, 0.8374987738439, 0, -0.8375248826787, -0.8374987738439, -0, 5.551115123126e-17, -0, 5.551115123126e-17, -0.006975122445706, 0.3170984536444, 0.3241095155255, 0, 0.3170984536444, 0.3241095155255
0.15, -0.009311155957136, 0.0004154237832109, 0.009311155957135, -0.0004154237832111, -6.601507115337e-17, 2.261347461638e-17, 0, -51.18987009261, -13.91142966634, -51.18987009261, -13.91142966634, 12.1751733158, -0.6383492598938, -12.1751733158, 0.638349259894, 4531.548052299, 2640.039406992, 4531.548052299, 2640.039406992, 6, 0, -1.431836021661e-18, 0.1130207680844, -0, -0, -0, -0, -0, -1.699366523736e-16, 0, 0, 0, 0, 0, -1.699369829935e-16, -0.01531697106094, 0.002008057998631, 0.01531697106094, -0.002008057998631, 2.446148310123, 2.446558212205, 2.446148310123, 2.446558212205, 4.99628215716, 0.008367806352347, -0.008367806352347, 1.293527408758e-16, 1, 119.8007298069, 120, 119.800478426, 4.996902765358, 2.086930159717, 4.996902765358, 2.086930159717, 4.99628215716, 4.996902752933, 2.086930159546, 21.6352374941, 4.996902752933, 2.086930159546, -2.191051096162e-18, 0, 0.008398036692005, -0.0008632128072139, -0.008398036692004, 0.0008632128072139, 0.8374482004579, 0.8375105243538, -0.8374482004579, -0.8375105243538, -1.431836021661e-18, 0.8375329689567, 0.8374991638276, 0, -0.8375329689567, -0.8374991638276, -0, -0, -0, -0, -0.006668071701009, 0.3170912272802, 0.3241491064913, 0, 0.3170912272802, 0.3241491064913
0.175, -0.01115493409701, -0.0001911335291522, 0.01115493409701, 0.0001911335291519, 6.393646275463e-16, 5.873997336638e-17, 0, -46.00858713894, -14.05466244772, -46.00858713894, -14.05466244772, 15.1241491856, -0.05077022447949, -15.1241491856, 0.05077022447967, 4542.871731997, 2637.316783626, 4542.871731997, 2637.316783626, 6, 0, -2.89116162908e-18, 0.1094999572573, -0, -0, -0, -0, -0, -3.630710623837e-16, 0, 0, 0, 0, 0, -3.630717254317e-16, -0.01884898564015, 0.0006654072635201, 0.01884898564015, -0.0006654072635208, 2.853337746865, 2.853836503726, 2.853337746865, 2.853836503726, 5.82814530711, 0.01031161172765, -0.01031161172765, 1.630557035219e-16, 1, 119.7668193123, 120, 119.7666141233, 5.828742230166, 2.918771252797, 5.828742230166, 2.918771252797, 5.82814530711, 5.828742211329, 2.918771252777, 22.46239726868, 5.828742211329, 2.918771252777, 1.357220371573e-18, 0, 0.01034765355563, -0.0003076897933446, -0.01034765355563, 0.0003076897933446, 0.8374357956853, 0.8375034967342, -0.8374357956853, -0.8375034967342, -2.89116162908e-18, 0.8375400974617, 0.8374997320951, 0, -0.8375400974617, -0.8374997320951, 5.551115123126e-17, -0, 5.551115123126e-17, -0, -0.006427086797993, 0.3170489689182, 0.3241592657109, 0, 0.3170489689182, 0.3241592657109
0.2, -0.01269907667982, -0.0005459841041689, 0.01269907667982, 0.0005459841041682, 4.516848375766e-15, 2.736392546464e-16, 0, -39.58008243986, -14.25393056971, -39.58008243986, -14.25393056971, 17.61776169811, 0.3808455290215, -17.61776169811, -0.3808455290211, 4555.76052044, 2641.850251574, 4555.76052044, 2641.850251574, 6, 0, -4.029909599444e-18, 0.1062907186898, -0, -0, -0, -0, -0, -6.313952953743e-16, 0, 0, 0, 0, 0, -6.313963818434e-16, -0.02185908861042, -0.0005355882497206, 0.02185908861042, 0.0005355882497195, 3.260432738714, 3.260999262216, 3.260432738714, 3.260999262216, 6.659772481816, 0.01197385349379, -0.01197385349378, -4.275572179643e-16, 1, 119.7336098896, 120, 119.7333950141, 6.660348155622, 3.750378369633, 6.660348155622, 3.750378369633, 6.659772481816, 6.660348130262, 3.750378369623, 23.28941067822, 6.660348130262, 3.750378369623, 3.921873006804e-17, 0, 0.01201442544347, 0.0001897094933071, -0.01201442544347, -0.0001897094933071, 0.8374250926177, 0.8374972005377, -0.8374250926177, -0.8374972005377, -4.029909599444e-18, 0.8375460325955, 0.8375002305485, 0, -0.8375460325955, -0.8375002305485, -0, -5.551115123126e-17, -0, -5.551115123126e-17, -0.006234579094899, 0.3170008705104, 0.3241423497934, 0, 0.3170008705104, 0.3241423497934
0.225, -0.01396607898455, -0.0006216306912977, 0.01396607898455, 0.0006216306912969, 3.318313354429e-15, 9.281562406769e-17, 0, -31.80724614648, -14.4615222427, -31.80724614648, -14.46152224272, 19.60342695889, 0.5508127561459, -19.60342695889, -0.5508127561452, 4565.49354925, 2649.530287925, 4565.49354925, 2649.530287925, 6, 0, -3.844455564657e-18, 0.1029998021197, -0, -0, -0, -0, -0, -9.331632935206e-16, 0, 0, 0, 0, 0, -9.331648013623e-16, -0.02437459258136, -0.001205320688884, 0.02437459258136, 0.001205320688883, 3.667439526146, 3.668049880325, 3.667439526146, 3.668049880325, 7.491172389783, 0.01334168599955, -0.01334168599955, -1.997260538912e-15, 1, 119.7012101665, 120, 119.7009677515, 7.491727034178, 4.581758447991, 7.491727034178, 4.581758447991, 7.491172389783, 7.491727002676, 4.581758447933, 24.11630679972, 7.491727002676, 4.581758447933, 1.229748693121e-16, 0, 0.01338552546216, 0.0004923289149565, -0.01338552546216, -0.0004923289149563, 0.8374160511392, 0.837493684552, -0.8374160511392, -0.837493684552, -3.844455564657e-18, 0.8375508932171, 0.8375005028716, 0, -0.8375508932171, -0.8375005028716, -0, -5.551115123126e-17, -0, -5.551115123126e-17, -0.006070289677503, 0.3169645476267, 0.3241136928838, 0, 0.3169645476267, 0.3241136928838
0.25, -0.01511402290683, -0.0004799884842865, 0.01511402290683, 0.0004799884842856, 2.790352324569e-15, 1.024236529961e-16, 0, -22.99380600745, -14.67547183375, -22.99380600745, -14.67547183375, 21.15722980983, 0.4898917271962, -21.15722980983, -0.4898917271954, 4570.458241532, 2656.31597679, 4570.458241532, 2656.31597679, 6, 0, -3.776749707345e-18, 0.09955345063327, -0, -0, -0, -0, -0, -1.293865984961e-15, 0, 0, 0, 0, 0, -1.293867938073e-15, -0.02652249143428, -0.001271918967492, 0.02652249143427, 0.00127191896749, 4.074367788433, 4.074991626303, 4.074367788433, 4.074991626303, 8.322352132812, 0.01455816318123, -0.01455816318123, -3.384784069221e-15, 1, 119.6698479901, 120, 119.6695835824, 8.322885299585, 5.412918249032, 8.322885299585, 5.412918249032, 8.322352132812, 8.322885262188, 5.412918248963, 24.94312763037, 8.322885262188, 5.412918248963, 1.975188368788e-16, 0, 0.01460426897549, 0.0005503864457963, -0.01460426897549, -0.0005503864457959, 0.8374082476192, 0.8374933316733, -0.8374082476192, -0.8374933316733, -3.776749707345e-18, 0.8375549634581, 0.8375005261674, 0, -0.8375549634581, -0.8375005261674, -0, -0, -0, -0, -0.00591812013405, 0.3169460173798, 0.3240883731411, 0, 0.3169460173798, 0.3240883731411
0.275, -0.01610121593774, -0.0002183938678454, 0.01610121593774, 0.0002183938678445, 2.349234193025e-15, 1.186113104155e-16, 0, 2.906406967171, -15.09398617205, 2.906406967171, -15.09398617205, 22.20512069435, 0.2942629868823, -22.20512069435, -0.2942629868814, 4570.994122319, 2660.492790794, 4570.994122319, 2660.492790794, 6, 0, -3.888529906991e-18, 0.09598367354173, -0, -0, -0, -0, -0, -1.724458295955e-15, 0, 0, 0, 0, 0, -1.724460715717e-15, -0.02844186273937, -0.0008807069249858, 0.02844186273937, 0.0008807069249824, 4.481242917813, 4.481828196902, 4.481242917813, 4.481828196902, 9.15331994147, 0.01557890244621, -0.01557890244621, -4.566255837677e-15, 1, 119.6402222612, 120, 119.6399350153, 9.153832129771, 6.243865984715, 9.153832129771, 6.243865984715, 9.15331994147, 9.153832086861, 6.243865984678, 25.76997758249, 9.153832086861, 6.243865984678, 2.616456027142e-16, 0, 0.01562657104716, 0.0004293039124913, -0.01562657104716, -0.0004293039124908, 0.8374012060405, 0.837495381496, -0.8374012060405, -0.837495381496, -3.888529906991e-18, 0.8375585383708, 0.8375003628952, 0, -0.8375585383708, -0.8375003628952, 5.551115123126e-17, -0, 5.551115123126e-17, -0, -0.005767625950023, 0.3169440127322, 0.3240727880558, 0, 0.3169440127322, 0.3240727880558
0.3, -0.01712366463329, 0.000277762082546, 0.0171236646333, -0.0002777620825447, 2.138037863771e-15, -8.458800887786e-17, 0, 53.5443401457, -16.05183322315, 53.54434014573, -16.05183322315, 24.77202214629, -0.05945746441528, -24.77202214629, 0.05945746441528, 4567.216220092, 2664.284445337, 4567.216220092, 2664.284445337, 6, 0, -1.093959468349e-18, 0.0919933184621, -0, -0, -0, -0, -0, -1.910942798503e-15, 0, 0, 0, 0, 0, -1.910945261622e-15, -0.03027826773565, -0.000134643565932, 0.03027826773565, 0.000134643565929, 4.888164632488, 4.888568142275, 4.888164632488, 4.888568142275, 9.984100218645, 0.01660274356482, -0.01660274356482, -5.930917615218e-15, 1, 119.6152695378, 120, 119.6149187898, 9.984590360775, 7.074624195162, 9.984590360775, 7.074624195162, 9.984100218645, 9.984590312096, 7.074624195161, 26.5972833839, 9.984590312096, 7.074624195161, 3.263422825995e-16, 0, 0.01665137938104, 6.474534558764e-05, -0.01665137938104, -6.474534558734e-05, 0.8373944727647, 0.8374992894717, -0.8373944727647, -0.8374992894717, -1.093959468349e-18, 0.8375619710152, 0.837500051001, 0, -0.8375619710152, -0.837500051001, -0, -0, -0, -0, -0.005608096244815, 0.3169581041748, 0.3240586401284, 0, 0.3169581041748, 0.3240586401284
0.325, -0.0181970965142, 0.0009584846589995, 0.01819709651421, -0.0009584846589994, 1.255251809207e-15, -1.431454977716e-16, 0, 109.7952000742, -17.23808634363, 109.7952000742, -17.23808634363, 26.63331457265, -0.602162749953, -26.63331457266, 0.6021627499526, 4558.769268498, 2671.563719244, 4558.769268498, 2671.563719244, 6, 0, 8.923173548605e-18, 0.08702316825068, -0, -0, -0, -0, -0, -1.218827334251e-15, 0, 0, 0, 0, 0, -1.218828740095e-15, -0.03215296550117, 0.001039211693122, 0.03215296550117, -0.001039211693124, 5.295199952894, 5.295229662316, 5.295199952894, 5.295229662316, 10.81473790544, 0.01764774093577, -0.01764774093577, -7.41235691728e-15, 1, 119.596765363, 120, 119.5963088465, 10.81520076327, 7.905234725055, 10.81520076327, 7.905234725055, 10.81473790544, 10.81520070833, 7.905234725011, 27.42533635634, 10.81520070833, 7.905234725011, 3.713675466858e-16, 0, 0.01769659656795, -0.0004244063289436, -0.01769659656795, 0.0004244063289441, 0.8373875105166, 0.837505433785, -0.8373875105166, -0.837505433785, 8.923173548605e-18, 0.8375653972107, 0.8374995566104, 0, -0.8375653972107, -0.8374995566104, -0, -0, -0, -0, -0.005428403476525, 0.3169896169958, 0.3240314786062, 0, 0.3169896169958, 0.3240314786062
0.35, -0.01931118110358, 0.002022910424265, 0.01931118110358, -0.002022910424265, 5.74568268847e-16, 1.327380206064e-17, 0, 160.5419096757, -18.35489119241, 160.5419096757, -18.35489119241, 28.35304606031, -1.426042177254, -28.35304606031, 1.426042177254, 4546.636777209, 2682.930385942, 4546.636777209, 2682.930385942, 6, 0, 1.262976944901e-17, 0.08078569061868, -0, -0, -0, -0, -0, -1.102090646599e-15, 0, 0, 0, 0, 0, -1.102091742096e-15, -0.03416767444198, 0.002842209184144, 0.03416767444198, -0.002842209184146, 5.702369261023, 5.701835235871, 5.702369261023, 5.701835235871, 11.64528073299, 0.01871123308549, -0.01871123308549, -8.067100100394e-15, 1, 119.584615367, 120, 119.584049113, 11.64570885664, 8.73574394407, 11.64570885664, 8.73574394407, 11.64528073299, 11.64570879474, 8.735743943726, 28.25417644313, 11.64570879474, 8.735743943726, 3.932654344505e-16, 0, 0.01875942733069, -0.001225444371294, -0.01875942733069, 0.001225444371295, 0.837379958758, 0.8375148599129, -0.837379958758, -0.8375148599129, 1.262976944901e-17, 0.8375690188493, 0.837498788141, 0, -0.8375690188493, -0.837498788141, -0, -0, -0, -0, -0.005223977948013, 0.3170348810266, 0.3239890653255, 0, 0.3170348810266, 0.3239890653255
0.375, -0.0206192994918, 0.003360810051212, 0.0206192994918, -0.003360810051213, 1.838265532348e-16, 8.202497140045e-17, 0, 201.358418671, -19.25877661076, 201.358418671, -19.25877661076, 30.1754091001, -2.573186135997, -30.17540910009, 2.573186135998, 4533.305216, 2695.346597517, 4533.305216, 2695.346597517, 6, 0, 1.306699563434e-17, 0.07350962607288, -0, -0, -0, -0, -0, -1.330789829896e-15, 0, 0, 0, 0, 0, -1.330790925171e-15, -0.0363866650243, 0.005392519379201, 0.0363866650243, -0.005392519379203, 6.109665738328, 6.108405650965, 6.109665738328, 6.108405650965, 12.475767718, 0.01996175664322, -0.01996175664322, -8.27047179796e-15, 1, 119.5778501662, 120, 119.5772124602, 12.47615448444, 9.566192362268, 12.47615448444, 9.566192362268, 12.475767718, 12.47615441412, 9.566192361046, 29.08371389303, 12.47615441412, 9.566192361046, 4.024399590257e-16, 0, 0.02000845664699, -0.002297020520268, -0.02000845664699, 0.002297020520269, 0.8373715633109, 0.8375281710115, -0.8373715633109, -0.8375281710115, 1.306699563434e-17, 0.8375729333373, 0.8374976824223, 0, -0.8375729333373, -0.8374976824223, -0, -0, -0, -0, -0.00499963252571, 0.3170846180881, 0.3239427351417, 0, 0.3170846180881, 0.3239427351417
0.4, -0.02203759639306, 0.004908072478252, 0.02203759639306, -0.004908072478253, 7.734305226683e-17, 1.41308861678e-16, 0, 232.482382937, -19.9335887879, 232.482382937, -19.9335887879, 32.14974608295, -3.945279450012, -32.14974608295, 3.945279450013, 4521.585103547, 2705.098738363, 4521.585103547, 2705.098738363, 6, 0, 1.204439522399e-17, 0.06577428765425, -0, -0, -0, -0, -0, -1.770889937645e-15, 0, 0, 0, 0, 0, -1.770891104532e-15, -0.03879809273646, 0.008580850538551, 0.03879809273646, -0.008580850538555, 6.517071576281, 6.514957474074, 6.517071576281, 6.514957474074, 13.30622700741, 0.02133279833682, -0.02133279833682, -8.259812309058e-15, 1, 119.5752921691, 120, 119.574638313, 13.3065691598, 10.39661132991, 13.3065691598, 10.39661132991, 13.30622700741, 13.30656907968, 10.39661132681, 29.91381566199, 13.30656907968, 10.39661132681, 4.052768332023e-16, 0, 0.02137735176921, -0.003660821722118, -0.02137735176921, 0.003660821722119, 0.8373623663905, 0.8375447795818, -0.8373623663905, -0.8375447795818, 1.204439522399e-17, 0.8375771112795, 0.8374962700411, 0, -0.8375771112795, -0.8374962700411, -0, 5.551115123126e-17, -0, 5.551115123126e-17, -0.004766621415123, 0.317128341085, 0.3239063443587, 0, 0.317128341085, 0.3239063443587
0.425, -0.02345641015137, 0.00648235837483, 0.02345641015136, -0.006482358374828, 4.800381650595e-16, -5.182870763971e-17, 0, 255.520450491, -20.42237246444, 255.520450491, -20.42237246444, 34.26598998439, -5.400226106945, -34.26598998439, 5.400226106944, 4513.29285614, 2710.499406495, 4513.29285614, 2710.499406495, 6, 0, 1.440507391232e-17, 0.05816471945098, -0, -0, -0, -0, -0, -1.903290278669e-15, 0, 0, 0, 0, 0, -1.903291259399e-15, -0.04133205460252, 0.01211624704835, 0.04133205460252, -0.01211624704835, 6.92456803106, 6.921503076813, 6.92456803106, 6.921503076813, 14.13667888947, 0.02272703109183, -0.02272703109183, -8.30290935924e-15, 1, 119.5758905891, 120, 119.5752641978, 14.13697669523, 11.22702412322, 14.13697669523, 11.22702412322, 14.13667888947, 14.13697660431, 11.22702411704, 30.7443544725, 14.13697660431, 11.22702411704, 4.003926695235e-16, 0, 0.02276900171191, -0.005173232302346, -0.0227690017119, 0.005173232302346, 0.8373526312271, 0.8375631564674, -0.8373526312271, -0.8375631564674, 1.440507391232e-17, 0.8375814237441, 0.8374946647712, 0, -0.8375814237441, -0.8374946647712, 5.551115123126e-17, -0, 5.551115123126e-17, -0, -0.004537042099349, 0.3171592724912, 0.3238861890025, 0, 0.3171592724912, 0.3238861890025
0.45, -0.02490234558309, 0.007972630935096, 0.0249023455831, -0.007972630935096, -1.217047905436e-15, -2.112098565983e-16, 0, 272.4536089232, -20.78209922954, 272.4536089232, -20.78209922954, 36.4403447929, -6.799372648017, -36.4403447929, 6.799372648016, 4508.727600793, 2712.372667624, 4508.727600793, 2712.372667624, 6, 0, 2.502340602631e-17, 0.05102645466106, -0, -0, -0, -0, -0, -1.135830879446e-15, 0, 0, 0, 0, 0, -1.135831329878e-15, -0.04389839029923, 0.01568689896935, 0.04389839029923, -0.01568689896935, 7.332139280678, 7.328051669668, 7.332139280678, 7.328051669668, 14.96713921869, 0.02417423949578, -0.02417423949579, -9.458655406322e-15, 1, 119.5788140362, 120, 119.5782334789, 14.96739497916, 12.05744817011, 14.96739497916, 12.05744817011, 14.96713921869, 14.96739487646, 12.05744815974, 31.57522720188, 14.96739487646, 12.05744815974, 4.251370608837e-16, 0, 0.02421334410958, -0.006699740778419, -0.02421334410959, 0.00669974077842, 0.8373426919014, 0.8375816761542, -0.8373426919014, -0.8375816761542, 2.502340602631e-17, 0.8375857033493, 0.8374930019039, 0, -0.8375857033493, -0.8374930019039, -0, -0, -0, -0, -0.004319435877845, 0.317176296455, 0.3238791943251, 0, 0.317176296455, 0.3238791943251
0.475, -0.0263020113734, 0.009376776306098, 0.0263020113734, -0.009376776306098, -3.821706312222e-15, -1.221490972081e-17, 0, 284.9738628885, -21.05714186074, 284.9738628885, -21.05714186074, 38.57530044679, -8.085288126262, -38.57530044679, 8.085288126262, 4507.009072089, 2712.774128259, 4507.009072089, 2712.774128259, 6, 0, 2.673798580155e-17, 0.04442778047692, -0, -0, -0, -0, -0, -1.038553680971e-15, 0, 0, 0, 0, 0, -1.038553993193e-15, -0.04640836930065, 0.0190950226263, 0.04640836930064, -0.0190950226263, 7.739773657398, 7.734610307049, 7.739773657398, 7.734610307049, 15.7976212947, 0.02559610837041, -0.02559610837041, -8.125080869451e-15, 1, 119.5834466518, 120, 119.5829091314, 15.79783790906, 12.8878968955, 15.79783790906, 12.8878968955, 15.7976212947, 15.79783779412, 12.88789688009, 32.40635867406, 15.79783779412, 12.88789688009, 3.453940808754e-16, 0, 0.0256321016392, -0.008183080002131, -0.0256321016392, 0.008183080002132, 0.8373328939921, 0.8375993139696, -0.8373328939921, -0.8375993139696, 2.673798580155e-17, 0.8375898052978, 0.8374913749199, 0, -0.8375898052978, -0.8374913749199, -0, 5.551115123126e-17, -0, 5.551115123126e-17, -0.004117332553196, 0.3171826979234, 0.3238776904902, 0, 0.3171826979234, 0.3238776904902
0.5, -0.02765624706625, 0.01060947132245, 0.02765624706626, -0.01060947132245, -4.657676252334e-15, 4.901750748747e-17, 0, 294.4343963292, -21.27411080149, 294.4343963292, -21.27411080149, 40.63787580273, -9.282151354316, -40.63787580272, 9.282151354316, 4506.829491853, 2713.407961328, 4506.829491853, 2713.407961328, 6, 0, 2.530639998568e-17, 0.03827273571234, -0, -0, -0, -0, -0, -1.239981812352e-15, 0, 0, 0, 0, 0, -1.239982088994e-15, -0.04880529492274, 0.02229047976979, 0.04880529492274, -0.02229047976979, 8.147463246035, 8.141184507837, 8.147463246035, 8.141184507837, 16.62813623114, 0.02698470812435, -0.02698470812435, -6.278941952412e-15, 1, 119.5893520244, 120, 119.5888462001, 16.62831615362, 13.71838078853, 16.62831615362, 13.71838078853, 16.62813623114, 16.62831602622, 13.71838076765, 33.23769820338, 16.62831602622, 13.71838076765, 2.499942733512e-16, 0, 0.02701731537104, -0.00949065450248, -0.02701731537104, 0.00949065450248, 0.8373234635678, 0.8376158141104, -0.8373234635678, -0.8376158141104, 2.530639998568e-17, 0.8375936445381, 0.8374898129185, 0, -0.8375936445381, -0.8374898129185, -0, -0, -0, -0, -0.003930330182972, 0.3171833569735, 0.323875318918, 0, 0.3171833569735, 0.323875318918
0.525, -0.02885354927621, 0.01187110225188, 0.02885354927621, -0.01187110225188, -3.233160267866e-15, 1.529365229739e-16, 0, 301.7925557068, -21.44805749158, 301.7925557068, -21.44805749158, 42.59806658521, -10.42196851336, -42.59806658521, 10.42196851336, 4507.09039165, 2714.852571906, 4507.09039165, 2714.852571906, 6, 0, 2.299798679265e-17, 0.03244132170738, -0, -0, -0, -0, -0, -1.483456100395e-15, 0, 0, 0, 0, 0, -1.483456338187e-15, -0.05105931253152, 0.02531585464739, 0.05105931253152, -0.02531585464739, 8.555203164285, 8.547778581971, 8.555203164285, 8.547778581971, 17.45869281848, 0.02822028714573, -0.02822028714573, -3.662653155341e-15, 1, 119.5962300911, 120, 119.5957469175, 17.45883803924, 14.54890800165, 17.45883803924, 14.54890800165, 17.45869281848, 17.45883789988, 14.54890797467, 34.06921322368, 17.45883789988, 14.54890797467, 1.173010343456e-16, 0, 0.02824920186153, -0.01080443757957, -0.02824920186153, 0.01080443757957, 0.8373145353238, 0.8376314009218, -0.8373145353238, -0.8376314009218, 2.299798679265e-17, 0.8375971934245, 0.8374883006042, 0, -0.8375971934245, -0.8374883006042, -0, -0, -0, -0, -0.003756173318497, 0.3171823725928, 0.3238699214758, 0, 0.3171823725928, 0.3238699214758
0.55, -0.03005291582244, 0.01309639816336, 0.03005291582244, -0.01309639816336, -3.380598064368e-15, 5.714997042213e-17, 0, 307.6522568303, -21.58667424126, 307.6522568303, -21.58667424126, 44.43965343885, -11.52185252063, -44.43965343884, 11.52185252063, 4507.190496749, 2716.745097892, 4507.190496749, 2716.745097892, 6, 0, 2.237289295093e-17, 0.02687016554317, -0, -0, -0, -0, -0, -1.736291072194e-15, 0, 0, 0, 0, 0, -1.73629126313e-15, -0.05317899762276, 0.02822793486413, 0.05317899762276, -0.02822793486414, 8.962990228366, 8.95439585264, 8.962990228366, 8.95439585264, 18.28929760473, 0.02945659293301, -0.02945659293301, -2.282575424615e-15, 1, 119.6038724139, 120, 119.6034092008, 18.28940958234, 15.37948478938, 18.28940958234, 15.37948478938, 18.28929760473, 18.28940943087, 15.37948475578, 34.90088221596, 18.28940943087, 15.37948475578, 4.460471886355e-17, 0, 0.02948153568455, -0.01206600908299, -0.02948153568455, 0.01206600908299, 0.8373060727376, 0.837646371642, -0.8373060727376, -0.837646371642, 2.237289295093e-17, 0.8376004648021, 0.8374868139903, 0, -0.8376004648021, -0.8374868139903, 5.551115123126e-17, -0, 5.551115123126e-17, -0, -0.00359249000852, 0.3171819883923, 0.3238628521211, 0, 0.3171819883923, 0.3238628521211
0.575, -0.03118372569371, 0.01420887163938, 0.03118372569371, -0.01420887163938, -3.179796260903e-15, -4.3521994241e-17, 0, 312.3583446854, -21.69523269624, 312.3583446854, -21.69523269624, 46.16780694982, -12.58895356848, -46.16780694982, 12.58895356848, 4506.969606549, 2718.43238034, 4506.969606549, 2718.43238034, 6, 0, 2.224056029358e-17, 0.02155831242236, -0, -0, -0, -0, -0, -1.924718130704e-15, 0, 0, 0, 0, 0, -1.924718266949e-15, -0.05517312298265, 0.03104850890537, 0.05517312298264, -0.03104850890538, 9.370822379682, 9.361038863061, 9.370822379682, 9.361038863061, 19.11995535098, 0.03062101874636, -0.03062101874636, -6.720987899787e-16, 1, 119.6121256819, 120, 119.6116843708, 19.12003564239, 16.21011593092, 19.12003564239, 16.21011593092, 19.11995535098, 19.12003547904, 16.21011589044, 35.73268929137, 19.12003547904, 16.21011589044, -4.170295173664e-17, 0, 0.03064178055254, -0.01321485724102, -0.03064178055254, 0.01321485724102, 0.8372980578098, 0.8376608432585, -0.8372980578098, -0.8376608432585, 2.224056029358e-17, 0.8376034898818, 0.837485345801, 0, -0.8376034898818, -0.837485345801, -0, 5.551115123126e-17, -0, 5.551115123126e-17, -0.00343762617642, 0.3171828021709, 0.3238565480448, 0, 0.3171828021709, 0.3238565480448
0.6, -0.0321911643079, 0.0153342614969, 0.0321911643079, -0.01533426149689, -2.884143825426e-15, -1.971660078223e-16, 0, 316.0987771247, -21.77919546302, 316.0987771247, -21.77919546302, 47.80166593221, -13.60465567317, -47.80166593221, 13.60465567317, 4506.516287735, 2719.510127236, 4506.516287735, 2719.510127236, 6, 0, 2.704924241499e-17, 0.01653196117999, -0, -0, -0, -0, -0, -1.521760252184e-15, 0, 0, 0, 0, 0, -1.52176031553e-15, -0.05705327440065, 0.03375967091649, 0.05705327440064, -0.03375967091649, 9.778697937327, 9.767709576918, 9.778697937327, 9.767709576918, 19.95066963352, 0.03165893209159, -0.03165893209159, 4.194021937469e-16, 1, 119.6208670454, 120, 119.6204505139, 19.95072001418, 17.0408051243, 19.95072001418, 17.0408051243, 19.95066963352, 19.95071983957, 17.04080507638, 36.56462109378, 19.95071983957, 17.04080507638, -1.170848436983e-16, 0, 0.03167539540228, -0.0143874726796, -0.03167539540228, 0.0143874726796, 0.8372904584032, 0.8376747283598, -0.8372904584032, -0.8376747283598, 2.704924241499e-17, 0.8376063004555, 0.8374839088013, 0, -0.8376063004555, -0.8374839088013, -0, -0, -0, -0, -0.003290713229914, 0.3171844834647, 0.323852517935, 0, 0.3171844834647, 0.323852517935
0.625, -0.03321029646817, 0.01638372345239, 0.03321029646817, -0.01638372345239, -2.741500228359e-15, -1.142995537025e-16, 0, 318.986208799, -21.84344380876, 318.986208799, -21.84344380876, 49.34787420811, -14.55280910903, -49.34787420811, 14.55280910903, 4505.988103949, 2719.978960763, 4505.988103949, 2719.978960763, 6, 0, 2.946959105727e-17, 0.01180973856361, -0, -0, -0, -0, -0, -1.269279388571e-15, 0, 0, 0, 0, 0, -1.269279415533e-15, -0.05883774276947, 0.03632718451077, 0.05883774276947, -0.03632718451078, 10.18661518745, 10.1744095391, 10.18661518745, 10.1744095391, 20.78144330733, 0.03270643629422, -0.03270643629422, 1.586888621232e-15, 1, 119.6299904752, 120, 119.6296000427, 20.78146547608, 17.87155528047, 20.78146547608, 17.87155528047, 20.78144330733, 20.78146529007, 17.87155522494, 37.39666553548, 20.78146529007, 17.87155522494, -1.88820546801e-16, 0, 0.03271856455766, -0.01549567301222, -0.03271856455766, 0.01549567301222, 0.8372831987455, 0.8376878553662, -0.8372831987455, -0.8376878553662, 2.946959105727e-17, 0.8376089214793, 0.8374825245801, 0, -0.8376089214793, -0.8374825245801, 5.551115123126e-17, 5.551115123126e-17, 5.551115123126e-17, 5.551115123126e-17, -0.003151391946594, 0.317186444308, 0.3238507596804, 0, 0.317186444308, 0.3238507596804
0.65, -0.03413949104653, 0.01729337566719, 0.03413949104653, -0.01729337566719, -2.1112920899e-15, -4.022633086437e-17, 0, 321.105641602, -21.89138951903, 321.105641602, -21.89138951903, 50.81201519052, -15.43266510836, -50.81201519052, 15.43266510836, 4505.50732197, 2720.089471139, 4505.50732197, 2720.089471139, 6, 0, 2.847153854413e-17, 0.007389826458021, -0, -0, -0, -0, -0, -1.344754236558e-15, 0, 0, 0, 0, 0, -1.344754247743e-15, -0.06052826703256, 0.03872568861907, 0.06052826703256, -0.03872568861907, 10.59457255887, 10.58113997359, 10.59457255887, 10.58113997359, 21.61227871081, 0.03366293701209, -0.03366293701208, 2.782664369554e-15, 1, 119.63940097, 120, 119.6390360569, 21.61227448659, 18.70236868835, 21.61227448659, 18.70236868835, 21.61227871081, 21.61227428967, 18.70236862543, 38.2288114965, 21.61227428967, 18.70236862543, -2.499152917275e-16, 0, 0.03367074403604, -0.01646950229173, -0.03367074403604, 0.01646950229173, 0.8372762872255, 0.8377000986305, -0.8372762872255, -0.8377000986305, 2.847153854413e-17, 0.8376113705037, 0.8374812111511, 0, -0.8376113705037, -0.8374812111511, -0, -0, -0, -0, -0.003019535109614, 0.3171882285211, 0.3238503384491, 0, 0.3171882285211, 0.3238503384491
0.675, -0.03507613525912, 0.01817139308008, 0.03507613525912, -0.01817139308008, -1.415631530248e-15, -1.282975314285e-17, 0, 322.5377696362, -21.92551071125, 322.5377696362, -21.92551071125, 52.19192063117, -16.23632287749, -52.19192063117, 16.23632287749, 4505.149012005, 2720.102932896, 4505.149012005, 2720.102932896, 6, 0, 2.613367701575e-17, 0.003256573556868, -0, -0, -0, -0, -0, -1.577485469493e-15, 0, 0, 0, 0, 0, -1.577485472041e-15, -0.06213359766121, 0.04094905410351, 0.06213359766121, -0.04094905410352, 11.00256831809, 10.98790182496, 11.00256831809, 10.98790182496, 22.44317767608, 0.0346265119818, -0.0346265119818, 3.751411537836e-15, 1, 119.6490130382, 120, 119.6486721601, 22.44314866131, 19.53324707825, 22.44314866131, 19.53324707825, 22.44317767608, 22.44314845341, 19.53324700792, 39.06104880944, 22.44314845341, 19.53324700792, -2.939512051807e-16, 0, 0.0346300435836, -0.01741031947867, -0.0346300435836, 0.01741031947867, 0.8372696865235, 0.8377114307536, -0.8372696865235, -0.8377114307536, 2.613367701575e-17, 0.8376136583229, 0.8374799762839, 0, -0.8376136583229, -0.8374799762839, -5.551115123126e-17, -0, -5.551115123126e-17, -0, -0.002895094638361, 0.3171895559848, 0.3238502794809, 0, 0.3171895559848, 0.3238502794809
0.7, -0.03589227656448, 0.01901649264577, 0.03589227656448, -0.01901649264577, -6.641695711165e-16, 2.335820006357e-17, 0, 323.3634286155, -21.94712652471, 323.3634286155, -21.94712652471, 53.51146915478, -16.98028254695, -53.51146915478, 16.98028254695, 4504.945829199, 2720.147812287, 4504.945829199, 2720.147812287, 6, 0, 2.323594247947e-17, -0.0006069966761238, -0, -0, -0, -0, -0, -1.903867768915e-15, 0, 0, 0, 0, 0, -1.903867769022e-15, -0.06364873401174, 0.04300588273554, 0.06364873401174, -0.04300588273554, 11.4106008726, 11.39469577051, 11.4106008726, 11.39469577051, 23.27414148441, 0.03546956680437, -0.03546956680437, 4.421222717094e-15, 1, 119.6587506991, 120, 119.6584325301, 23.27408935471, 20.36419164258, 23.27408935471, 20.36419164258, 23.27414148441, 23.27408913658, 20.36419156488, 39.8933682247, 23.27408913658, 20.36419156488, -3.198463467624e-16, 0, 0.03546889250576, -0.01831327958984, -0.03546889250576, 0.01831327958983, 0.8372634333127, 0.8377218985058, -0.8372634333127, -0.8377218985058, 2.323594247947e-17, 0.8376157937476, 0.8374788184465, 0, -0.8376157937476, -0.8374788184465, -0, -0, -0, -0, -0.002778041267002, 0.3171903049222, 0.323850103503, 0, 0.3171903049222, 0.323850103503
0.725, -0.03672855187443, 0.01973426975354, 0.03672855187443, -0.01973426975353, -1.601189945467e-15, -1.719360363278e-16, 0, 323.6640696994, -21.95741074748, 323.6640696994, -21.95741074749, 54.75525638085, -17.67340164752, -54.75525638085, 17.67340164751, 4504.910898414, 2720.216625301, 4504.910898414, 2720.216625301, 6, 0, 2.587962927697e-17, -0.004211901540174, -0, -0, -0, -0, -0, -1.598845778492e-15, 0, 0, 0, 0, 0, -1.598845782812e-15, -0.06508177361565, 0.04491005385697, 0.06508177361565, -0.04491005385697, 11.81866847303, 11.80152223055, 11.81866847303, 11.80152223055, 24.10517086955, 0.03633281421, -0.03633281421, 4.709048371051e-15, 1, 119.6685476042, 120, 119.668251373, 24.10509705568, 21.19520306696, 24.10509705568, 21.19520306696, 24.10517086955, 24.10509682724, 21.19520298241, 40.72576133802, 24.10509682724, 21.19520298241, -3.446808161027e-16, 0, 0.03632803004503, -0.01908394756844, -0.03632803004503, 0.01908394756844, 0.8372574883718, 0.8377315760033, -0.8372574883718, -0.8377315760033, 2.587962927697e-17, 0.8376177822787, 0.8374777332948, 0, -0.8376177822787, -0.8374777332948, -0, -5.551115123126e-17, -0, -5.551115123126e-17, -0.002668327147259, 0.3171904263487, 0.3238498384807, 0, 0.3171904263487, 0.3238498384807
0.75, -0.03745238293359, 0.0204570289242, 0.03745238293359, -0.0204570289242, 1.648061959892e-15, -2.374493106492e-17, 0, 323.5155810708, -21.95784938419, 323.5155810708, -21.95784938419, 55.93187659519, -18.30989488261, -55.93187659519, 18.30989488261, 4505.032356516, 2720.241739106, 4505.032356516, 2720.241739106, 6, 0, 2.769928869248e-17, -0.007563842380276, -0, -0, -0, -0, -0, -1.263806808261e-15, 0, 0, 0, 0, 0, -1.263806819274e-15, -0.0664264251578, 0.04667278053779, 0.06642642515779, -0.04667278053779, 12.22676960243, 12.20838139616, 12.22676960243, 12.20838139616, 24.93626609028, 0.0370835705561, -0.0370835705561, 5.157147061058e-15, 1, 119.6783467329, 120, 119.6780719944, 24.93617216642, 22.02628159, 24.93617216642, 22.02628159, 24.93626609028, 24.93617192846, 22.02628149857, 41.55822053395, 24.93617192846, 22.02628149857, -3.737144522874e-16, 0, 0.03707480166209, -0.01985638105233, -0.03707480166209, 0.01985638105233, 0.837251892341, 0.8377405236423, -0.837251892341, -0.8377405236423, 2.769928869248e-17, 0.837619629732, 0.8374767176472, 0, -0.837619629732, -0.8374767176472, -0, -0, -0, -0, -0.002565841209699, 0.3171899646041, 0.3238497368097, 0, 0.3171899646041, 0.3238497368097
0.775, -0.0381468847216, 0.02109298245671, 0.0381468847216, -0.02109298245671, 6.524172383747e-15, 9.515554769688e-17, 0, 322.9894034411, -21.94983740249, 322.9894034411, -21.94983740249, 57.03268273774, -18.89140017196, -57.03268273774, 18.89140017196, 4505.283667332, 2720.172017315, 4505.283667332, 2720.172017315, 6, 0, 2.787014396992e-17, -0.01066800054814, -0, -0, -0, -0, -0, -1.439060736332e-15, 0, 0, 0, 0, 0, -1.439060761277e-15, -0.0676880838919, 0.04830033041892, 0.0676880838919, -0.04830033041892, 12.63490267821, 12.61527326367, 12.63490267821, 12.61527326367, 25.76742703581, 0.037804701984, -0.037804701984, 2.585271281763e-15, 1, 119.6880997699, 120, 119.6878459768, 25.76731443958, 22.85742707646, 25.76731443958, 22.85742707646, 25.76742703581, 25.76731419241, 22.85742697859, 42.39073897703, 25.76731419241, 22.85742697859, -2.326622384114e-16, 0, 0.03779209967431, -0.02054032645868, -0.03779209967431, 0.02054032645868, 0.8372466207727, 0.8377487761861, -0.8372466207727, -0.8377487761861, 2.787014396992e-17, 0.8376213416056, 0.8374757706642, 0, -0.8376213416056, -0.8374757706642, -0, -5.551115123126e-17, -0, -5.551115123126e-17, -0.002470370979682, 0.3171890187034, 0.3238499893412, 0, 0.3171890187034, 0.3238499893412
0.8, -0.03881044788392, 0.02167417838259, 0.03881044788392, -0.02167417838259, 7.54886733682e-15, 1.358619905727e-16, 0, 322.149261177, -21.9348461295, 322.149261177, -21.9348461295, 58.05932832241, -19.42840489948, -58.05932832241, 19.42840489948, 4505.624379301, 2720.003652816, 4505.624379301, 2720.003652816, 6, 0, 2.832159822248e-17, -0.0135330038004, -0, -0, -0, -0, -0, -1.810923416678e-15, 0, 0, 0, 0, 0, -1.810923467192e-15, -0.06886853064722, 0.04979574611628, 0.06886853064721, -0.04979574611628, 13.04306626748, 13.02219767155, 13.04306626748, 13.02219767155, 26.59865331857, 0.03849427800287, -0.03849427800287, -1.246788960723e-15, 1, 119.6977663464, 120, 119.6975326116, 26.59852344266, 23.68863909175, 26.59852344266, 23.68863909175, 26.59865331857, 26.59852318662, 23.68863898776, 43.22331062574, 26.59852318662, 23.68863898776, -2.647444285506e-17, 0, 0.03847801263693, -0.02116830044665, -0.03847801263693, 0.02116830044665, 0.8372416701204, 0.8377563508422, -0.8372416701204, -0.8377563508422, 2.832159822248e-17, 0.8376229243654, 0.8374748923147, 0, -0.8376229243654, -0.8374748923147, -0, -5.551115123126e-17, -0, -5.551115123126e-17, -0.002381596075351, 0.3171877396034, 0.323850610331, 0, 0.3171877396034, 0.323850610331
0.825, -0.03942962073407, 0.02218068732447, 0.03942962073407, -0.02218068732446, -3.390644186389e-15, -3.022792795472e-16, 0, 321.0520056886, -21.91424885324, 321.0520056886, -21.91424885324, 59.02310819733, -19.91678009524, -59.02310819734, 19.91678009524, 4506.012175248, 2719.766134195, 4506.012175248, 2719.766134195, 6, 0, 2.8689130556e-17, -0.01617158713724, -0, -0, -0, -0, -0, -1.837556564374e-15, 0, 0, 0, 0, 0, -1.837556637567e-15, -0.06996984098603, 0.05116277453641, 0.06996984098602, -0.05116277453641, 13.45125904421, 13.42915433073, 13.45125904421, 13.42915433073, 27.42994433192, 0.0391385415925, -0.0391385415925, -1.662692421794e-15, 1, 119.7073131494, 120, 119.7070982905, 27.42979851623, 24.51991695917, 27.42979851623, 24.51991695917, 27.42994433192, 27.42979825177, 24.51991684954, 44.0559302056, 27.42979825177, 24.51991684954, -1.028000209102e-17, 0, 0.03911879433717, -0.0217198799695, -0.03911879433718, 0.0217198799695, 0.8372370365502, 0.8377632689093, -0.8372370365502, -0.8377632689093, 2.8689130556e-17, 0.8376243858452, 0.8374740827928, 0, -0.8376243858452, -0.8374740827928, -0, -0, -0, -0, -0.00229912030092, 0.3171862852178, 0.3238514897866, 0, 0.3171862852178, 0.3238514897866
0.85, -0.04000659767376, 0.02264153942155, 0.04000659767376, -0.02264153942155, -1.828578547566e-15, -9.752799614986e-17, 0, 319.7470140482, -21.88909616002, 319.7470140482, -21.88909616002, 59.92217159298, -20.357870961, -59.92217159298, 20.357870961, 4506.414965393, 2719.492777717, 4506.414965393, 2719.492777717, 6, 0, 3.149806432108e-17, -0.01859860713728, -0, -0, -0, -0, -0, -1.280654578367e-15, 0, 0, 0, 0, 0, -1.280654645838e-15, -0.070995703418, 0.05240675649712, 0.07099570341799, -0.05240675649712, 13.85947976409, 13.83614284886, 13.85947976409, 13.83614284886, 28.26129927861, 0.03973945657237, -0.03973945657237, -7.742977465145e-16, 1, 119.7167131215, 120, 119.7165158734, 28.26113877748, 25.35125980246, 28.26113877748, 25.35125980246, 28.26129927861, 28.26113850504, 25.35125968757, 44.88859314992, 28.26113850504, 25.35125968757, -6.738198725614e-17, 0, 0.03971641296159, -0.02222344805689, -0.03971641296159, 0.02222344805689, 0.8372327073584, 0.8377695589443, -0.8372327073584, -0.8377695589443, 3.149806432108e-17, 0.8376257339049, 0.8374733405686, 0, -0.8376257339049, -0.8374733405686, -0, -0, -0, -0, -0.00222252482027, 0.3171847752844, 0.323852503418, 0, 0.3171847752844, 0.323852503418
0.875, -0.04056533552756, 0.02309611692553, 0.04056533552756, -0.02309611692553, -1.009507351244e-16, 1.856005860704e-17, 0, 318.2763434567, -21.86020661139, 318.2763434567, -21.86020661139, 60.75317523971, -20.75588710793, -60.75317523971, 20.75588710793, 4506.816852217, 2719.202801555, 4506.816852217, 2719.202801555, 6, 0, 2.975514280815e-17, -0.02082848912446, -0, -0, -0, -0, -0, -1.242465930245e-15, 0, 0, 0, 0, 0, -1.242466012342e-15, -0.07195141116488, 0.05353467163527, 0.07195141116488, -0.05353467163527, 14.26772724659, 14.24316274561, 14.26772724659, 14.24316274561, 29.09271718867, 0.04032087267057, -0.04032087267057, -1.045331600278e-16, 1, 119.7259445801, 120, 119.7257637819, 29.09254314432, 26.1826665775, 29.09254314432, 26.1826665775, 29.09271718867, 29.0925428642, 26.18266645752, 45.72129549171, 29.0925428642, 26.18266645752, -9.711798915724e-17, 0, 0.04029471913829, -0.02271804323175, -0.04029471913829, 0.02271804323175, 0.8372286610076, 0.8377752578551, -0.8372286610076, -0.8377752578551, 2.975514280815e-17, 0.8376269763871, 0.8374726631637, 0, -0.8376269763871, -0.8374726631637, 5.551115123126e-17, -0, 5.551115123126e-17, -0, -0.0021514162646, 0.317183269108, 0.3238535795241, 0, 0.317183269108, 0.3238535795241
0.9, -0.0410434239875, 0.02347907886176, 0.04104342398751, -0.02347907886176, -5.108452674907e-15, 1.922823095026e-17, 0, 316.6748278319, -21.8282609973, 316.6748278319, -21.8282609973, 61.53045658021, -21.11602618152, -61.53045658021, 21.11602618152, 4507.214170222, 2718.898880081, 4507.214170222, 2718.898880081, 6, 0, 2.54370668029e-17, -0.02287380199164, -0, -0, -0, -0, -0, -1.495646062009e-15, 0, 0, 0, 0, 0, -1.495646181196e-15, -0.07283777729661, 0.0545537014365, 0.07283777729661, -0.0545537014365, 14.67600043377, 14.65021346764, 14.67600043377, 14.65021346764, 29.92419694116, 0.04082039322124, -0.04082039322125, 7.546020329263e-16, 1, 119.734990355, 120, 119.7348250168, 29.92401050686, 27.01413610013, 29.92401050686, 27.01413610013, 29.92419694116, 29.92401021979, 27.0141359756, 46.55403374905, 29.92401021979, 27.0141359756, -1.311820702436e-16, 0, 0.04079131793695, -0.02313839622986, -0.04079131793696, 0.02313839622986, 0.8372249017456, 0.8377804029137, -0.8372249017456, -0.8377804029137, 2.54370668029e-17, 0.8376281220642, 0.8374720472703, 0, -0.8376281220642, -0.8374720472703, -0, -0, -0, -0, -0.002085451070368, 0.3171817803794, 0.3238547081259, 0, 0.3171817803794, 0.3238547081259
0.925, -0.04150773352271, 0.02381567768767, 0.04150773352271, -0.02381567768766, -6.568698385856e-15, 3.476013085734e-18, 0, 314.9720257435, -21.79394293242, 314.9720257435, -21.79394293242, 62.25100485641, -21.43630718615, -62.25100485641, 21.43630718615, 4507.613154218, 2718.576840085, 4507.613154218, 2718.576840085, 6, 0, 1.779205353038e-17, -0.02474527069336, -0, -0, -0, -0, -0, -1.845575331245e-15, 0, 0, 0, 0, 0, -1.845575503369e-15, -0.07366216897497, 0.05547088086673, 0.07366216897496, -0.05547088086674, 15.08429823798, 15.05729440217, 15.08429823798, 15.05729440217, 30.75573729306, 0.04130495902309, -0.04130495902309, 4.290101911736e-15, 1, 119.743837058, 120, 119.7436863149, 30.75553947393, 27.84566707463, 30.75553947393, 27.84566707463, 30.75573729306, 30.75553918019, 27.84566694597, 47.3868048368, 30.75553918019, 27.84566694597, -2.972277035373e-16, 0, 0.04127314917157, -0.02351000634856, -0.04127314917157, 0.02351000634856, 0.8372213954085, 0.8377850310733, -0.8372213954085, -0.8377850310733, 1.779205353038e-17, 0.8376291775317, 0.8374714900661, 0, -0.8376291775317, -0.8374714900661, -0, -0, -0, -0, -0.002024334374474, 0.3171802857999, 0.3238559047895, 0, 0.3171802857999, 0.3238559047895
0.95, -0.0419299602194, 0.02414350350259, 0.0419299602194, -0.02414350350259, -5.249798728179e-15, -1.936724618871e-16, 0, 313.1921520132, -21.75774659646, 313.1921520132, -21.75774659646, 62.91893115175, -21.72286327598, -62.91893115176, 21.72286327598, 4508.019479138, 2718.234813122, 4508.019479138, 2718.234813122, 6, 0, 1.473927144448e-17, -0.0264526277571, -0, -0, -0, -0, -0, -1.707251961648e-15, 0, 0, 0, 0, 0, -1.707252143601e-15, -0.07442661842709, 0.05629233873707, 0.07442661842709, -0.05629233873707, 15.49261968284, 15.46440489036, 15.49261968284, 15.46440489036, 31.58733691085, 0.04174635492535, -0.04174635492536, 7.207154412844e-15, 1, 119.752474442, 120, 119.752337474, 31.58712869405, 28.67725811976, 31.58712869405, 28.67725811976, 31.58733691085, 31.5871283941, 28.67725798719, 48.21960600446, 31.5871283941, 28.67725798719, -4.431291492357e-16, 0, 0.04171199767506, -0.02387069432362, -0.04171199767506, 0.02387069432362, 0.837218137461, 0.8377891740659, -0.837218137461, -0.8377891740659, 1.473927144448e-17, 0.8376301494814, 0.8374709886373, 0, -0.8376301494814, -0.8374709886373, -0, -0, -0, -0, -0.001967803843307, 0.3171787641945, 0.3238571764804, 0, 0.3171787641945, 0.3238571764804
0.975, -0.04232985765135, 0.02440901488942, 0.04232985765135, -0.02440901488942, -1.000580725088e-14, -3.487612337594e-16, 0, 311.356039653, -21.72024183109, 311.356039653, -21.72024183111, 63.53952528813, -21.97657934547, -63.53952528813, 21.97657934547, 4508.436191315, 2717.876741357, 4508.436191315, 2717.876741357, 6, 0, 1.407823054354e-17, -0.02800543616567, -0, -0, -0, -0, -0, -1.087730999207e-15, 0, 0, 0, 0, 0, -1.087731129144e-15, -0.07513534905216, 0.05702380192295, 0.07513534905216, -0.05702380192296, 15.90096380651, 15.87154423872, 15.90096380651, 15.87154423872, 32.41899439761, 0.04216440675977, -0.04216440675977, 1.061322049437e-14, 1, 119.7608948808, 120, 119.7607708566, 32.41877669041, 29.50890779098, 32.41877669041, 29.50890779098, 32.41899439761, 32.41877638459, 29.50890765503, 49.05243479436, 32.41877638459, 29.50890765503, -6.283171719552e-16, 0, 0.04212768659546, -0.02416700234564, -0.04212768659546, 0.02416700234564, 0.8372151103755, 0.8377928614601, -0.8372151103755, -0.8377928614601, 1.407823054354e-17, 0.8376310437544, 0.8374705401992, 0, -0.8376310437544, -0.8374705401992, 5.551115123126e-17, -0, 5.551115123126e-17, -0, -0.0019156117164, 0.3171772041789, 0.3238585084799, 0, 0.3171772041789, 0.3238585084799
1, -0.04268486267927, 0.02467988248552, 0.04268486267927, -0.02467988248552, -1.054223281819e-14, -9.905213765468e-17, 0, 309.4812879055, -21.68190029418, 309.4812879055, -21.68190029418, 64.11115572465, -22.19471954914, -64.11115572465, 22.19471954914, 4508.861598803, 2717.510198307, 4508.861598803, 2717.510198307, 6, 0, 4.896221627979e-18, -0.02941343032884, -0, -0, -0, -0, -0, -1.025341745558e-15, 0, 0, 0, 0, 0, -1.025341880667e-15, -0.0757901444867, 0.05767119956847, 0.0757901444867, -0.05767119956847, 16.30932971881, 16.27871172945, 16.30932971881, 16.27871172945, 33.25070831294, 0.04253658802891, -0.04253658802891, 1.64306012003e-14, 1, 119.7690929979, 120, 119.7689810672, 33.25048199727, 30.34061460008, 33.25048199727, 30.34061460008, 33.25070831294, 33.25048168607, 30.34061446088, 49.88528901672, 33.25048168607, 30.34061446088, -9.118367870532e-16, 0, 0.04249768589877, -0.02446657755024, -0.04249768589877, 0.02446657755024, 0.8372123094318, 0.8377961240706, -0.8372123094318, -0.8377961240706, 4.896221627979e-18, 0.8376318655157, 0.8374701420854, 0, -0.8376318655157, -0.8374701420854, -0, -0, -0, -0, -0.001867513329195, 0.3171756120648, 0.3238598725145, 0, 0.3171756120648, 0.3238598725145
1.025, -0.04303445647489, 0.02489085565956, 0.04303445647489, -0.02489085565956, -7.518379820352e-15, -2.896715914247e-17, 0, 307.5830753723, -21.64290013394, 307.5830753723, -21.64290013394, 64.64095466139, -22.38939388499, -64.64095466139, 22.38939388499, 4509.292282032, 2717.142321077, 4509.292282032, 2717.142321077, 6, 0, -6.850662886688e-18, -0.03068637996649, -0, -0, -0, -0, -0, -1.272579764532e-15, 0, 0, 0, 0, 0, -1.272579947048e-15, -0.0763959275138, 0.05824011925398, 0.0763959275138, -0.05824011925398, 16.71771653085, 16.68590662725, 16.71771653085, 16.68590662725, 34.08247718614, 0.04290240114647, -0.04290240114647, 2.144654131538e-14, 1, 119.7770653276, 120, 119.7769646466, 34.08224303714, 31.17237702788, 34.08224303714, 31.17237702788, 34.08247718614, 34.08224272078, 31.17237688594, 50.7181667204, 34.08224272078, 31.17237688594, -1.141316337581e-15, 0, 0.04286149127691, -0.02470415309126, -0.04286149127691, 0.02470415309126, 0.8372097123531, 0.8377989900901, -0.8372097123531, -0.8377989900901, -6.850662886688e-18, 0.83763261976, 0.837469790937, 0, -0.83763261976, -0.837469790937, -0, -0, -0, -0, -0.001823264337553, 0.3171740005856, 0.3238612419372, 0, 0.3171740005856, 0.3238612419372
1.05, -0.04338142526989, 0.02504603517667, 0.04338142526989, -0.02504603517667, -4.763144696353e-15, -2.415050837776e-17, 0, 305.674705213, -21.60352343265, 305.674705213, -21.60352343265, 65.1253708317, -22.5625520277, -65.12537083169, 22.5625520277, 4509.72345862, 2716.777265411, 4509.72345862, 2716.777265411, 6, 0, -1.899281388158e-17, -0.03183377021457, -0, -0, -0, -0, -0, -1.68353009248e-15, 0, 0, 0, 0, 0, -1.683530352329e-15, -0.07695563153999, 0.05873640280379, 0.07695563153998, -0.05873640280379, 17.12612341801, 17.0931281857, 17.12612341801, 17.0931281857, 34.91429952577, 0.04326464059217, -0.04326464059217, 2.508536455358e-14, 1, 119.7848100539, 120, 119.7847198146, 34.9140582615, 32.0041935366, 34.9140582615, 32.0041935366, 34.91429952577, 34.91405794014, 32.00419339241, 51.55106616669, 34.91405794014, 32.00419339241, -1.295003496896e-15, 0, 0.04322189038738, -0.02488387350992, -0.04322189038738, 0.02488387350991, 0.8372073073697, 0.8378014893434, -0.8372073073697, -0.8378014893434, -1.899281388158e-17, 0.8376333109835, 0.8374694835791, 0, -0.8376333109835, -0.8374694835791, -0, -0, -0, -0, -0.001782623371072, 0.3171723875728, 0.3238626012209, 0, 0.3171723875728, 0.3238626012209
1.075, -0.04366909992973, 0.0251995562844, 0.04366909992973, -0.0251995562844, -2.183196512264e-15, -1.444543174748e-16, 0, 303.7664819518, -21.56415070517, 303.7664819517, -21.56415070517, 65.57478771574, -22.7073423252, -65.57478771574, 22.7073423252, 4510.149927244, 2716.416156165, 4510.149927244, 2716.416156165, 6, 0, -2.924843337909e-17, -0.03286455757388, -0, -0, -0, -0, -0, -2.008972291976e-15, 0, 0, 0, 0, 0, -2.008972622463e-15, -0.07746900568597, 0.05916590817717, 0.07746900568596, -0.05916590817717, 17.53454963299, 17.50037565217, 17.53454963299, 17.50037565217, 35.74617382809, 0.04356665050803, -0.04356665050803, 2.734034171102e-14, 1, 119.7923267651, 120, 119.7922462112, 35.7459261903, 32.83606257924, 35.7459261903, 32.83606257924, 35.74617382809, 35.74592586454, 32.83606243296, 52.38398580186, 35.74592586454, 32.83606243296, -1.379840734282e-15, 0, 0.04352222184194, -0.0250599869726, -0.04352222184194, 0.02505998697259, 0.8372051005463, 0.837803652047, -0.8372051005463, -0.837803652047, -2.924843337909e-17, 0.8376339438925, 0.8374692171263, 0, -0.8376339438925, -0.8374692171263, -5.551115123126e-17, 5.551115123126e-17, -5.551115123126e-17, 5.551115123126e-17, -0.001745356401565, 0.3171707924437, 0.3238639461448, 0, 0.3171707924437, 0.3238639461448
1.1, -0.04389585624573, 0.0253569448357, 0.04389585624573, -0.0253569448357, -7.786681060105e-16, -3.167015654997e-16, 0, 301.8677507744, -21.52490747309, 301.8677507744, -21.52490747309, 65.99069917549, -22.82703592079, -65.9906991755, 22.82703592079, 4510.568747156, 2716.058614843, 4510.568747156, 2716.058614843, 6, 0, -2.998852686437e-17, -0.0337871069715, -0, -0, -0, -0, -0, -1.25033082462e-15, 0, 0, 0, 0, 0, -1.250331042016e-15, -0.07793863174273, 0.05953395588483, 0.07793863174273, -0.05953395588483, 17.94299442736, 17.90764827199, 17.94299442736, 17.90764827199, 36.57809858546, 0.04380682907911, -0.04380682907911, 2.806860758454e-14, 1, 119.7996162259, 120, 119.7995446516, 36.5778452708, 33.66798260762, 36.5778452708, 33.66798260762, 36.57809858546, 36.57784494127, 33.66798245939, 53.21692423152, 36.57784494127, 33.66798245939, -1.415884140714e-15, 0, 0.04376087655584, -0.02523815801145, -0.04376087655584, 0.02523815801145, 0.8372030817622, 0.8378055053213, -0.8372030817622, -0.8378055053213, -2.998852686437e-17, 0.8376345226774, 0.8374689886283, 0, -0.8376345226774, -0.8374689886283, 5.551115123126e-17, 5.551115123126e-17, 5.551115123126e-17, 5.551115123126e-17, -0.00171124002171, 0.3171692261586, 0.3238652780985, 0, 0.3171692261586, 0.3238652780985
1.125, -0.04412139619397, 0.02545377721879, 0.04412139619396, -0.02545377721879, 6.612256203608e-15, 1.458213525205e-16, 0, 299.9868169973, -21.48587458809, 299.9868169973, -21.48587458809, 66.36575757864, -22.93278671578, -66.36575757864, 22.93278671578, 4510.979310192, 2715.70452266, 4510.979310192, 2715.70452266, 6, 0, -3.422217719683e-17, -0.0346092548056, -0, -0, -0, -0, -0, -9.10496068245e-16, 0, 0, 0, 0, 0, -9.104962343518e-16, -0.07837023754704, 0.059845015473, 0.07837023754704, -0.059845015473, 18.35145704509, 18.31494529214, 18.35145704509, 18.31494529214, 37.41007229449, 0.04404490837494, -0.04404490837493, 2.725502507526e-14, 1, 119.8066801946, 120, 119.8066169385, 37.40981387709, 34.49995207988, 37.40981387709, 34.49995207988, 37.41007229449, 37.40981354395, 34.49995193019, 54.04988020262, 37.40981354395, 34.49995193019, -1.353759268552e-15, 0, 0.04399757720374, -0.02535411824516, -0.04399757720374, 0.02535411824515, 0.8372012228642, 0.8378070711348, -0.8372012228642, -0.8378070711348, -3.422217719683e-17, 0.8376350508994, 0.837468794793, 0, -0.8376350508994, -0.837468794793, -5.551115123126e-17, -0, -5.551115123126e-17, -0, -0.001680062933061, 0.3171676909494, 0.3238665975056, 0, 0.3171676909494, 0.3238665975056
1.15, -0.04434768336596, 0.02555145527472, 0.04434768336596, -0.02555145527472, 1.174759594812e-14, -3.890905154802e-17, 0, 298.1294804459, -21.44731540083, 298.1294804459, -21.44731540083, 66.71267066767, -23.01573014194, -66.71267066767, 23.01573014194, 4511.380692864, 2715.354579679, 4511.380692864, 2715.354579679, 6, 0, -3.744677467713e-17, -0.03533840043516, -0, -0, -0, -0, -0, -8.651377469925e-16, 0, 0, 0, 0, 0, -8.651379115448e-16, -0.0787663949362, 0.06010405310126, 0.0787663949362, -0.06010405310126, 18.75993679969, 18.72226596533, 18.75993679969, 18.72226596533, 38.24209346298, 0.04428289284498, -0.04428289284498, 2.324698566308e-14, 1, 119.8135212391, 120, 119.813465674, 38.24183047256, 35.33196946821, 38.24183047256, 35.33196946821, 38.24209346298, 38.24183013593, 35.33196931719, 54.88285258437, 38.24183013593, 35.33196931719, -1.123120105879e-15, 0, 0.04423432038266, -0.02546936091481, -0.04423432038266, 0.02546936091481, 0.8371995136485, 0.8378083754074, -0.8371995136485, -0.8378083754074, -3.744677467713e-17, 0.8376355325997, 0.8374686334763, 0, -0.8376355325997, -0.8374686334763, -0, -0, -0, -0, -0.001651626123452, 0.3171661902471, 0.3238679017296, 0, 0.3171661902471, 0.3238679017296
1.175, -0.04457518237961, 0.02559319034767, 0.04457518237961, -0.02559319034767, 1.120458730236e-14, 4.706256789279e-17, 0, 296.3010028715, -21.40938728259, 296.3010028715, -21.4093872826, 67.03170341601, -23.0808607848, -67.03170341601, 23.0808607848, 4511.772394287, 2715.010153551, 4511.772394287, 2715.010153551, 6, 0, -4.129044453552e-17, -0.03598155711423, -0, -0, -0, -0, -0, -9.862567713491e-16, 0, 0, 0, 0, 0, -9.86256965829e-16, -0.07912947289129, 0.06031512924958, 0.07912947289129, -0.06031512924959, 19.16843303513, 19.12960955212, 19.16843303513, 19.12960955212, 39.07416061561, 0.04452128735062, -0.04452128735061, 1.82376363936e-14, 1, 119.8201426048, 120, 119.8200941373, 39.07389354157, 36.16403326284, 39.07389354157, 36.16403326284, 39.07416061561, 39.07389320158, 36.16403311094, 55.71584035691, 39.07389320158, 36.16403311094, -8.392319762265e-16, 0, 0.04447160306341, -0.02552720291522, -0.04447160306341, 0.02552720291522, 0.8371979443616, 0.837809438312, -0.8371979443616, -0.837809438312, -4.129044453552e-17, 0.8376359711446, 0.8374685019073, 0, -0.8376359711446, -0.8374685019073, -0, -0, -0, -0, -0.001625742434273, 0.3171647259066, 0.3238691856472, 0, 0.3171647259066, 0.3238691856472
