Time,Alpha_L1i,Alpha_L1o,Alpha_L2i,Alpha_L2o,Alpha_R1i,Alpha_R1o,Alpha_R2i,Alpha_R2o,AVz,Ay,Bk_Stat,Fx_L1,Fx_L2,Fx_R1,Fx_R2,Fy_L1,Fy_L2,Fy_R1,Fy_R2,Fz_L1,Fz_L1i,Fz_L2,Fz_L2i,Fz_L2o,Fz_R1,Fz_R1i,Fz_R2,Fz_R2i,Fz_R2o,Lat_Targ,Lat_Veh,Pitch,PitchGL1,PitchGL2,PitchGR1,PitchGR2,Pitch_A1,Pitch_A2,Roll,RollGL1,RollGL2,RollGR1,RollGR2,Roll_A1,Roll_A2,Roll_E,Roll_L1,Roll_L2,Roll_R1,Roll_R2,Rot_L1,Rot_L2,Rot_R1,Rot_R2,Station,Steer_L1,Steer_L2,Steer_R1,Steer_R2,Steer_SW,Vx,VxTarget,Vxz_Fwd,Xctc_L1o,Xctc_L2o,Xctc_R1o,Xctc_R2o,Xo,X_A1,X_A2,X_L1,X_L2,X_R1,X_R2,Yaw,Yaw_L1,Yaw_L2,Yaw_R1,Yaw_R2,Yctc_L1o,Yctc_L2o,Yctc_R1o,Yctc_R2o,Yo,Y_A1,Y_A2,Y_L1,Y_L2,Y_R1,Y_R2,Zgnd_L1o,Zgnd_L2o,Zgnd_R1o,Zgnd_R2o,Zo,Z_A1,Z_A2,Z_L1,Z_L2,Z_R1,Z_R2
            0,             0,             0,             0,             0,             0,             0,             0,             0,             0, -5.11246407136e-33,             0, 3.78685728608e-11,             0, 3.78685728608e-11,             0,             0,             0,             0,             0, 19050.9921875, 19050.9921875, 10575.9619141, 5287.98095703, 5287.98095703, 19050.9921875, 19050.9921875, 10575.9619141, 5287.98095703, 5287.98095703,             0,             0, -0.068251863122,             0,             0,             0,             0, -0.068251863122, -0.068251863122,             0,             0,             0,             0,             0,             0,             0,             0,             0,             0,             0,             0, -0.000189588521607, -0.000189588521607, -0.000189588521607, -0.000189588521607,             0,             0,             0,             0,             0,             0,            70,            70,            70, -0.00060752191348, -5.00062799454, -0.00060752191348, -5.00062799454,             0, -0.00060752191348, -5.00062799454, -0.00060752191348, -5.00062799454, -0.00060752191348, -5.00062799454,             0, 1.60265325181e-15,             0, -1.60265325181e-15,             0, 1.01499998569, 1.08650004864, -1.01499998569, -1.08650004864,             0, 4.23230009833e-22, 5.31699984742e-21, 1.01499998569, 0.931500017643, -1.01499998569, -0.931500017643,             0,             0,             0,             0, -0.00943942554295, 0.500560224056, 0.514604091644, 0.500560224056, 0.514604091644, 0.500560224056, 0.514604091644
        0.025, 0.00436220364645,             0, 0.00123655679636, 0.00123655796051, -0.0794622525573,             0, 0.00123655097559, 0.00123654981144, 0.00336805568077, 0.00201439415105,             0, -102.644882202, -51.1651039124, -102.681739807, -51.670085907, -6.53992414474, -1.05542933941, 128.256027222, -1.0561054945, 19031.7089844, 19031.7089844, 10599.6669922, 5300.18847656, 5299.47802734, 19069.8535156, 19069.8535156, 10608.2070312, 5303.74853516, 5304.45898438,             0, 8.4100629465e-06, -0.0684946775436,             0,             0,             0,             0, -0.0703043043613, -0.0684946775436, 0.000264672358753,             0,             0,             0,             0, 0.00146302813664, 0.00013401239994, 0.000264672533376, 0.00162730331067, 0.000134012298076, -0.0060975458473, 0.000134012298076, 0.151427641511, 0.151459485292, 0.151426434517, 0.151459574699, 0.486050873995, -0.0017811129801,             0, 0.0820524692535,             0, -0.0017137323739, 69.9807891846,            70, 69.9806213379, 0.485443711281, -4.51457977295, 0.485585033894, -4.51457834244, 0.486050873995, 0.485441178083, -4.51457929611, 0.485443711281, -4.51457977295, 0.485584944487, -4.51457881927, 3.10071154672e-05, -0.00174816185609, 3.11673211399e-05, 0.0820762515068, 3.11673211399e-05, 1.01501917839, 1.08650398254, -1.01504826546, -1.08649599552, 8.4100629465e-06, 4.94529513162e-06, 2.81082157016e-06, 1.01500499249, 0.931502819061, -1.0149949789, -0.931497216225,             0,             0,             0,             0, -0.00944659579545, 0.500553667545, 0.514589846134, 0.500579893589, 0.514591991901, 0.500540971756, 0.514587640762
         0.05, 0.00867614150047,             0, 0.00248815049417, 0.00248815794475, -0.0718318894506,             0, 0.0024881134741, 0.00248810602352, 0.0106684509665, 0.00264064432122,             0, -101.997207642, -94.0871200562, -102.913497925, -95.4024887085, -14.2786712646, -3.60738158226, 178.402572632, -3.6197912693,   19031.09375,   19031.09375, 10668.0126953, 5335.77685547, 5332.23583984, 19095.9277344, 19095.9277344, 10710.5693359, 5353.51464844, 5357.05517578,             0, 4.82103569084e-05, -0.0689105093479,             0,             0,             0,             0, -0.0707527473569, -0.0689105093479, 0.00139732367825,             0,             0,             0,             0, 0.00220869202167, 0.000667767017148, 0.00139732472599, 0.00245381216519, 0.000667766493279, -0.00496647926047, 0.000667766493279, 0.302992522717, 0.303011059761, 0.30298936367, 0.303012043238, 0.971963047981, -0.00265745911747,             0, 0.0778592452407,             0, -0.0106793083251, 69.9596176147,            70, 69.9594497681, 0.971350669861, -4.02867460251, 0.971489191055, -4.02866697311, 0.971963047981, 0.971349656582, -4.02867078781, 0.971350669861, -4.02867412567, 0.971489131451, -4.02866744995, 0.00020121014677, -0.00245329970494, 0.000202013281523, 0.0780545398593, 0.000202013281523,  1.0150564909, 1.08652126789, -1.01500833035, -1.08647871017, 4.82103569084e-05, 3.50195623469e-05, 1.52402972162e-05, 1.01503503323, 0.931515216827, -1.01496493816, -0.931484758854, 1.11022302463e-16,             0,             0,             0, -0.00946540664881, 0.500540971756, 0.514546275139, 0.500580489635, 0.514557123184, 0.50051432848, 0.514535427094
        0.075, 0.0119961611927,             0, 0.00283101946115, 0.00283103506081, -0.0675215572119,             0, 0.00283094146289, 0.00283092586324, 0.0197172593325, 0.0027029234916,             0, -100.986358643, -126.497299194, -102.260894775, -128.509857178, -24.2132911682, -5.27686214447, 195.580352783, -5.31637954712, 19033.3769531, 19033.3769531, 10703.4697266, 5355.31396484,    5348.15625,   19122.03125,   19122.03125,       10789.5, 5391.17089844, 5398.32861328,             0, 0.000121643046441, -0.0691372826695,             0,             0,             0,             0, -0.0711504220963, -0.0691372826695, 0.00315920519643,             0,             0,             0,             0, 0.0028833351098, 0.00134989945218, 0.00315920752473, 0.00319880037569, 0.00134989852086, -0.00413096416742, 0.00134989852086, 0.454508900642, 0.454470455647, 0.454505473375, 0.454474121332, 1.45772075653, -0.00341987214051,             0, 0.0761062204838,             0, -0.0289637167007, 69.9373168945,            70, 69.9373168945, 1.45710098743, -3.54292607307, 1.45724856853, -3.54290413857, 1.45772075653, 1.45710539818, -3.54291510582, 1.45710098743, -3.54292464256, 1.45724856853, -3.5429058075, 0.000578915176447, -0.00283709960058, 0.00058054405963, 0.0766802057624, 0.00058054405963, 1.01512169838, 1.08654785156, -1.01494216919, -1.0864521265, 0.000121643046441, 9.37705262913e-05, 3.57343924406e-05, 1.01509380341, 0.931535720825, -1.01490616798, -0.931464254856,             0,             0,             0,             0, -0.00948938168585, 0.500526547432, 0.514517128468, 0.500578165054, 0.514539062977, 0.500487744808, 0.514495134354
          0.1, 0.0143531421199,             0, 0.00194683438167, 0.00194685021415, -0.0650732815266,             0, 0.00194675498642, 0.00194673915394, 0.0292067788541, 0.00261869933456,             0, -100.609603882, -141.82220459, -102.030975342, -144.163986206, -33.7379188538, -4.8608956337, 199.456893921, -4.91870307922,  19037.109375,  19037.109375, 10674.8388672, 5342.52636719, 5332.31201172, 19142.6640625, 19142.6640625, 10797.6044922,  5393.6953125, 5403.90917969,             0, 0.000217424429138, -0.0688713416457,             0,             0,             0,             0, -0.0709556862712, -0.0688713416457, 0.00483885779977,             0,             0,             0,             0, 0.00336108892225, 0.00192634086125, 0.00483886152506, 0.00376274576411, 0.00192633946426, -0.00355846690945, 0.00192633946426, 0.605974137783, 0.60585051775, 0.605973005295, 0.605859398842, 1.94331240654, -0.00435445830226,             0, 0.0750800594687,             0, -0.0558749176562, 69.9143218994,            70, 69.9145507812,  1.9426857233, -3.05734372139, 1.94285154343, -3.05729842186, 1.94331240654, 1.94269931316, -3.05732107162,  1.9426857233, -3.05734062195, 1.94285154343, -3.05730175972, 0.00119047344197, -0.00315946503542, 0.00119278894272, 0.0762663111091, 0.00119278894272, 1.01520860195, 1.08657610416, -1.01485526562, -1.0864238739, 0.000217424429138, 0.00017570561613, 5.88480070292e-05, 1.01517570019, 0.931558847427, -1.01482415199, -0.931441128254,             0,             0,             0,             0, -0.00951119046658, 0.500514149666, 0.514522314072, 0.500574350357, 0.514553666115, 0.500466644764, 0.514491021633
        0.125, 0.0160026922822,             0, 0.000294180528726, 0.00029418367194, -0.0635216757655,             0, 0.000294164783554, 0.00029416164034, 0.0383210517466, 0.00255093863234,             0, -100.922554016, -137.741073608, -102.331222534, -139.969451904, -41.5004081726, -2.53264522552, 198.655044556, -2.57579779625, 19042.6757812, 19042.6757812, 10598.4716797, 5305.02050781, 5293.45166016, 19153.7597656, 19153.7597656, 10737.5224609,  5362.9765625, 5374.54541016,             0, 0.000323283544276, -0.0681631788611,             0,             0,             0,             0, -0.0701989158988, -0.0681631788611, 0.0057728770189,             0,             0,             0,             0, 0.00350973103195, 0.00218184897676, 0.00577288120985, 0.00402294890955, 0.00218184734695, -0.00330639327876, 0.00218184734695, 0.757387042046, 0.757170855999, 0.757390856743, 0.757187724113, 2.42873549461, -0.00556479021907,             0, 0.073967397213,             0, -0.0899155959487, 69.8911590576,            70, 69.8915176392, 2.42810249329, -2.57193017006, 2.42829418182, -2.57185268402, 2.42873549461, 2.42812871933, -2.57189130783, 2.42810249329, -2.57192444801, 2.42829418182, -2.57185816765, 0.00203615194187, -0.00352385640144, 0.00203874753788, 0.0759996622801, 0.00203874753788, 1.01530909538, 1.08659958839, -1.01475477219, -1.08640050888, 0.000323283544276, 0.000273967947578, 7.99496046966e-05, 1.01527392864, 0.931579947472, -1.01472592354, -0.93142002821,             0,             0,             0,             0, -0.00952810700983, 0.500505626202, 0.514557123184, 0.500568687916, 0.514592587948, 0.500455319881, 0.514521658421
         0.15, 0.0175150129944,             0, -0.00148642575368, -0.00148644496221, -0.0621259175241,             0, -0.00148632912897, -0.00148630992044, 0.0465268790722, 0.00251545826904,             0, -101.717918396, -115.911849976, -103.002334595, -117.723175049, -47.6860237122, 0.742228388786, 196.244018555, 0.737098574638, 19052.5410156, 19052.5410156, 10526.6689453,   5268.703125, 5257.96630859, 19156.9492188, 19156.9492188, 10655.7167969, 5322.49023438, 5333.22705078,             0, 0.000433109147707, -0.0673777833581,             0,             0,             0,             0, -0.0692812874913, -0.0673777833581, 0.00567130744457,             0,             0,             0,             0, 0.00330472923815, 0.00202490529045, 0.00567131116986, 0.00395204871893, 0.00202490389347, -0.00338694313541, 0.00202490389347, 0.90874838829, 0.908454239368, 0.908759772778, 0.908481419086, 2.91399765015, -0.00702018011361,             0, 0.0726283341646,             0, -0.129899919033, 69.8683929443,            70, 69.8686828613, 2.91335511208, -2.08668088913, 2.91357970238, -2.08656334877, 2.91399765015, 2.91339802742, -2.08662199974, 2.91335511208, -2.08667254448, 2.91357970238, -2.08657169342, 0.00309905433096, -0.00391648337245, 0.00310143548995, 0.0757234543562, 0.00310143548995, 1.01541936398, 1.08661592007, -1.01464474201,  -1.086384058, 0.000433109147707, 0.000384782149922, 9.77599556791e-05, 1.01538479328, 0.93159776926, -1.01461517811, -0.931402266026,             0, -1.11022302463e-16,             0, 1.11022302463e-16, -0.00954153761268, 0.500498950481, 0.51459634304, 0.500558614731, 0.514629244804, 0.500452101231, 0.514563381672
        0.175, 0.0194444786757,             0, -0.00282907998189, -0.00282912212424, -0.0603666640818,             0, -0.00282886833884, -0.00282882596366, 0.0535648688674, 0.00246108160354,             0, -102.692718506, -80.0967178345, -103.790130615, -81.4563446045, -53.3773040771, 3.76360368729, 192.710174561, 3.78744888306, 19066.8457031, 19066.8457031, 10511.6855469,  5259.9765625, 5251.70898438, 19155.4238281, 19155.4238281, 10611.0556641, 5301.39404297, 5309.66162109,             0, 0.000548741430975, -0.0669494494796,             0,             0,             0,             0, -0.0686917006969, -0.0669494494796, 0.00469858432189,             0,             0,             0,             0, 0.00283460691571, 0.00155924027786, 0.00469858758152, 0.00363443489186, 0.00155923923012, -0.00371962063946, 0.00155923923012,  1.0600605011, 1.05972242355, 1.06008172035, 1.05976176262, 3.39911079407, -0.00867526698858,             0, 0.0711432620883,             0, -0.17538048327, 69.8464889526,            70, 69.8465576172, 3.39845275879, -1.60158765316, 3.39871621132, -1.60142254829, 3.39911079407, 3.39851474762, -1.60150516033, 3.39845275879, -1.60157597065, 3.39871621132, -1.60143435001, 0.00435282289982, -0.00431820331141, 0.00435464503244, 0.0754917934537, 0.00435464503244,  1.0155403614, 1.08662867546, -1.01452374458, -1.0863713026, 0.000548741430975, 0.000508595141582, 0.000114691123599, 1.01550853252, 0.93161469698, -1.01449131966, -0.931385278702,             0, 1.11022302463e-16,             0, -1.11022302463e-16, -0.00955346040428, 0.50049239397, 0.514611542225, 0.500544011593, 0.514636874199, 0.500453650951, 0.514586210251
          0.2, 0.0220887456089,             0, -0.00351862912066, -0.00351868732832, -0.0579408742487,             0, -0.00351833738387, -0.00351827894337, 0.0593715831637, 0.00233863061294,             0, -103.586891174,  -35.88331604, -104.486824036, -36.9286689758, -59.7587089539, 5.82003593445, 187.759506226, 5.84872102737, 19081.5234375, 19081.5234375, 10568.9560547, 5287.08691406, 5281.86914062, 19150.8867188, 19150.8867188, 10631.6708984,  5313.2265625, 5318.44433594,             0, 0.000677522446495, -0.0671112537384,             0,             0,             0,             0, -0.0687066540122, -0.0671112537384, 0.0033404098358,             0,             0,             0,             0, 0.00226516928524, 0.000984054524451, 0.00334041216411, 0.00323817599565, 0.000984053942375, -0.00413624942303, 0.000984053942375, 1.21132624149, 1.21099257469, 1.21135938168, 1.21104538441, 3.88408613205, -0.0105538405478,             0, 0.0694830268621,             0, -0.226492837071, 69.8257904053,            70,  69.825592041, 3.88340473175, -1.11664068699,  3.8837120533, -1.11642193794, 3.88408613205, 3.88348865509, -1.11653137207, 3.88340473175, -1.11662507057,  3.8837120533, -1.11643755436, 0.00576704414561, -0.00478301011026, 0.00576819712296, 0.0752452760935, 0.00576819712296, 1.01567697525, 1.08664405346, -1.01438736916, -1.08635592461, 0.000677522446495, 0.00064872141229, 0.000135271126055, 1.01564872265, 0.931635260582, -1.01435112953, -0.931364715099,             0,             0,             0,             0, -0.00956238619983, 0.500487208366, 0.514591693878, 0.500529050827, 0.514607667923, 0.500458300114, 0.514575660229
        0.225, 0.025342117995,             0, -0.00372109771706, -0.00372116430663, -0.0550022311509,             0, -0.00372076476924, -0.00372069841251, 0.0640298500657, 0.00212508579716,             0, -104.274375916, 9.89468479156, -105.006210327, 9.03299236298, -67.5162887573, 6.68938779831, 181.162185669, 6.68875360489, 19089.4628906, 19089.4628906, 10666.6474609, 5334.65332031, 5331.99414062, 19142.2070312, 19142.2070312, 10698.6113281, 5347.97607422, 5350.63525391,             0, 0.000827718293294, -0.0677667558193,             0,             0,             0,             0, -0.0692459046841, -0.0677667558193, 0.00215578242205,             0,             0,             0,             0, 0.00176879810169, 0.000501549511682, 0.00215578381903, 0.00293626403436, 0.000501549162436, -0.00446814624593, 0.000501549162436,  1.3625484705, 1.36227273941, 1.36259508133, 1.36234021187, 4.36893081665, -0.0126620912924,             0, 0.0676894113421,             0, -0.28350675106, 69.8064346313,            70, 69.8060913086, 4.36821985245, -0.631831228733, 4.36857509613, -0.631553888321, 4.36893081665, 4.36832761765, -0.631692588329, 4.36821985245, -0.631811439991, 4.36857509613, -0.631573677063, 0.00731169851497, -0.0053469282575, 0.00731229176745, 0.074995867908, 0.00731229176745, 1.01583445072, 1.08666849136, -1.0142301321, -1.0863314867, 0.000827718293294, 0.000808808719739, 0.00016400073946, 1.01580882072, 0.931663990021, -1.01419115067, -0.931335985661,             0, -1.11022302463e-16, -1.11022302463e-16,             0, -0.0095623107627, 0.500487565994, 0.514549672604, 0.500520944595, 0.51455783844, 0.500467121601, 0.514541506767
         0.25, 0.0288297105581,             0, -0.00370773626491, -0.00370780634694, -0.051879696548,             0, -0.0037073858548, -0.00370731577277, 0.0676362067461, 0.00185257662088,             0, -104.836723328, 54.3060493469, -105.437316895, 53.6340866089, -76.5645294189, 7.11878013611, 173.164108276,  7.1280503273, 19083.8886719, 19083.8886719, 10747.1201172, 5374.23730469, 5372.88330078, 19126.5839844, 19126.5839844, 10763.3916016, 5381.01904297, 5382.37304688,             0, 0.00100430275779, -0.068587064743,             0,             0,             0,             0, -0.0699595063925, -0.068587064743, 0.00154324690811,             0,             0,             0,             0, 0.00145981949754, 0.000255321967416, 0.00154324795585, 0.00284315785393, 0.000255321792793, -0.00459613511339, 0.000255321792793, 1.51372945309, 1.51356434822, 1.51379096508, 1.51364767551, 4.85364866257, -0.0150017915294,             0, 0.0657147020102,             0, -0.346368998289, 69.7884216309,            70, 69.7880859375, 4.85290575027, -0.147152066231,  4.8533115387, -0.14681224525, 4.85364866257,   4.853038311, -0.14698214829, 4.85290575027, -0.147127822042,  4.8533115387, -0.146836489439, 0.00895970128477, -0.00603869697079, 0.00896000768989, 0.0746689513326, 0.00896000768989, 1.01601541042, 1.08670592308, -1.01404953003, -1.08629405499, 0.00100430275779, 0.000990546657704, 0.000203663599677, 1.01599049568, 0.93170362711, -1.0140093565, -0.931296348572,             0,             0,             0,             0, -0.00954574625939, 0.500498354435, 0.514512598515, 0.500526666641, 0.51451677084, 0.500483095646, 0.514508485794
        0.275, 0.0320781394839,             0, -0.00392273627222, -0.00392281310633, -0.0489853434265,             0, -0.00392235023901, -0.0039222734049, 0.0703004226089, 0.00155277934391,             0, -105.36416626, 93.4807510376, -105.882293701, 92.9985122681, -86.1905059814, 7.36600542068, 164.460250854, 7.37601423264, 19062.1503906, 19062.1503906, 10767.5263672, 5384.43798828, 5383.08837891, 19102.2773438, 19102.2773438, 10783.7490234, 5391.19970703, 5392.54931641,             0, 0.00120684620924, -0.0692475438118,             0,             0,             0,             0, -0.0705016925931, -0.0692475438118, 0.00161480600946,             0,             0,             0,             0, 0.00136431143619, 0.000254554994171, 0.00161480717361, 0.00298356334679, 0.000254554819549, -0.00448937434703, 0.000254554819549, 1.66487133503, 1.66486489773, 1.66494894028, 1.66496503353, 5.33824300766, -0.0175589285791,             0, 0.0635116323829,             0, -0.414407104254, 69.7716598511,            70, 69.7714309692, 5.33746814728, 0.337403655052, 5.33792686462, 0.337808907032, 5.33824300766, 5.33762693405, 0.337606281042, 5.33746814728, 0.337432563305, 5.33792686462, 0.337779998779, 0.0106856971979, -0.00686963787302, 0.0106860045344, 0.0741919502616, 0.0106860045344, 1.01621866226, 1.08675694466, -1.01384651661, -1.08624303341, 0.00120684620924, 0.00119258847553, 0.000254657235928, 1.01619255543, 0.931754648685, -1.01380729675, -0.931245326996,             0,             0,             0,             0, -0.00950880162418, 0.500521838665, 0.514502227306, 0.500548839569, 0.514506340027, 0.500507891178, 0.514498114586
          0.3, 0.0347273014486,             0, -0.00459366990253, -0.00459376210347, -0.0466343834996,             0, -0.00459320656955, -0.00459311390296, 0.0720953866839, 0.00128291931469,             0, -105.90977478, 126.243125916, -106.369438171, 125.937965393, -95.3901901245, 8.14070892334,  156.00402832, 8.16014957428, 19028.1464844, 19028.1464844, 10725.8037109, 5364.05615234, 5361.74755859,  19070.890625,  19070.890625, 10753.5498047, 5375.62060547, 5377.92919922,             0, 0.00142961007077, -0.0696316584945,             0,             0,             0,             0, -0.0707508400083, -0.0696316584945, 0.00218935008161,             0,             0,             0,             0, 0.00141616084147, 0.000435369845945, 0.00218935171142, 0.0032880268991, 0.000435369525803, -0.00421299738809, 0.000435369525803,  1.8159763813, 1.81617033482, 1.81607115269, 1.81628775597, 5.82272005081, -0.0202979557216,             0, 0.0610708743334,             0, -0.486369282007, 69.7559661865,            70, 69.7558441162, 5.82191467285, 0.821843385696, 5.82242774963, 0.822316229343, 5.82272005081, 5.82210016251, 0.822079837322, 5.82191467285, 0.821877121925, 5.82242774963, 0.822282552719, 0.0124674402177, -0.00782653409988, 0.0124679701403, 0.073533244431, 0.0124679701403, 1.01643943787, 1.08681917191, -1.01362597942, -1.08618080616, 0.00142961007077, 0.00141070235986, 0.000315259152558, 1.01641070843, 0.931815266609, -1.01358914375, -0.931184709072,             0,             0,             0,             0, -0.00945492647588, 0.500555157661, 0.514520585537, 0.500583529472, 0.51452767849, 0.500539898872, 0.514513492584
        0.325, 0.0366540327668,             0, -0.00576897570863, -0.00576909305528, -0.044946115464,             0, -0.00576838618144, -0.0057682688348, 0.0730037987232, 0.00108254665975,             0, -106.433364868, 152.912918091, -106.834724426,   152.7293396, -103.360046387, 9.79962444305, 148.632843018, 9.83528709412, 18990.9980469, 18990.9980469, 10660.2880859, 5331.90380859, 5328.38427734, 19037.6289062, 19037.6289062, 10702.5927734, 5349.53662109, 5353.05664062,             0, 0.00166400335729, -0.069867156446,             0,             0,             0,             0, -0.0708521530032, -0.069867156446, 0.00291492044926,             0,             0,             0,             0, 0.00150313775521, 0.000663813960273, 0.00291492254473, 0.0036391960457, 0.000663813494612, -0.00388419465162, 0.000663813494612,  1.9670470953, 1.96747672558, 1.96715962887,  1.9676117897, 6.30708885193, -0.0231631379575,             0, 0.058444339782,             0, -0.560654997826, 69.7411422729,            70, 69.7410354614,  6.3062543869, 1.30617547035, 6.30682182312, 1.30671715736, 6.30708885193, 6.30646705627, 1.30644631386,  6.3062543869, 1.30621409416, 6.30682182312, 1.30667853355, 0.0142830731347, -0.00887564383447, 0.014283882454, 0.0727227181196, 0.014283882454, 1.01667094231, 1.08688867092, -1.01339459419, -1.08611118793, 0.00166400335729, 0.00163920840714, 0.000382784026442, 1.01663923264, 0.931882739067, -1.01336073875, -0.93111717701,             0,             0,             0, 1.11022302463e-16, -0.00939462333918, 0.500591099262, 0.51455026865, 0.500621438026, 0.514561057091, 0.50057387352, 0.514539480209
         0.35, 0.0379890650511,             0, -0.00725130271167, -0.00725145079195, -0.0438161455095,             0, -0.00725056231022, -0.00725041469559, 0.0729772746563, 0.000962644407991,             0, -106.851860046,  174.91343689, -107.174797058, 174.784225464,   -109.716362, 12.2630958557, 142.789047241, 12.3173923492,   18960.78125,   18960.78125, 10622.0068359, 5313.15332031, 5308.85302734,  19008.921875,  19008.921875, 10673.6972656, 5334.69824219, 5338.99902344,             0, 0.00190175056923, -0.070182621479,             0,             0,             0,             0, -0.0710611343384, -0.070182621479, 0.00343590322882,             0,             0,             0,             0, 0.00152103777509, 0.000811089121271, 0.00343590578996, 0.00392685923725, 0.000811088480987, -0.00361595698632, 0.000811088480987, 2.11808609962, 2.11878037453, 2.11821675301, 2.11893296242, 6.79135847092, -0.0260883048177,             0, 0.0557245314121,             0, -0.635671794415, 69.7270355225,            70, 69.7268600464, 6.79049396515, 1.79040753841, 6.79111623764, 1.79101860523, 6.79135847092, 6.79073381424, 1.79071307182, 6.79049396515, 1.79045116901, 6.79111623764, 1.79097497463, 0.0161098279059, -0.00997368711978, 0.0161108206958, 0.0718299746513, 0.0161108206958, 1.01690709591, 1.08696222305, -1.01315867901, -1.0860376358, 0.00190175056923, 0.00187276361976, 0.000455004425021, 1.01687276363, 0.931954979897, -1.01312708855, -0.93104493618,             0,             0,             0,             0, -0.00934113748372, 0.500621140003, 0.514567434788, 0.500652253628, 0.514580607414,  0.5006031394, 0.514554262161
        0.375, 0.0390161648393,             0, -0.00874346029013, -0.0087436363101, -0.042992644012,             0, -0.00874257925898, -0.00874240323901, 0.0719706863165, 0.000905675289687,             0, -107.120025635,  193.97883606, -107.337547302, 193.870681763, -114.612052917, 15.1276311874, 138.413070679, 15.1943006516, 18944.0976562, 18944.0976562, 10639.7636719, 5322.02832031, 5317.73583984, 18989.4296875, 18989.4296875, 10691.3544922,    5343.53125, 5347.82324219,             0, 0.00213750405237, -0.0707022100687,             0,             0,             0,             0, -0.0715178251266, -0.0707022100687, 0.00353648862801,             0,             0,             0,             0, 0.00141453102697, 0.000809514371213, 0.00353649118915, 0.00408984115347, 0.000809513730928, -0.00347259477712, 0.000809513730928, 2.26909518242, 2.27007842064, 2.26924419403, 2.27024841309,  7.2755355835, -0.0290091075003,             0, 0.0530077181756,             0, -0.710151553154, 69.7135391235,            70, 69.7132797241, 7.27463960648, 2.27454590797, 7.27531671524, 2.27522563934,  7.2755355835, 7.27490663528, 2.27488565445, 7.27463960648, 2.27459430695, 7.27531671524, 2.27517724037, 0.017923720181, -0.011080362834, 0.0179247185588, 0.070927195251, 0.0179247185588, 1.01714348793, 1.08703839779, -1.0129224062, -1.08596146107, 0.00213750405237, 0.00210779253393, 0.000531166035216, 1.01710772514, 0.932031095028, -1.01289212704, -0.930968761444, 1.11022302463e-16, -1.11022302463e-16, -1.11022302463e-16,             0, -0.00930477585644, 0.500639557838, 0.514558374882, 0.500669300556, 0.514571547508, 0.500623047352, 0.514545202255
          0.4, 0.0400395095348,             0, -0.00996243674308, -0.0099626313895, -0.0421844348311,             0, -0.00996146071702, -0.0099612660706, 0.0699838921428, 0.00087692856323,             0, -107.284469604,  211.59274292, -107.377967834, 211.525115967, -118.572860718,  17.869052887, 135.039108276, 17.9327487946, 18941.9355469, 18941.9355469, 10702.2998047, 5352.89404297,    5349.40625, 18980.3574219, 18980.3574219,   10744.21875, 5370.36523438, 5373.85302734,             0, 0.0023699037265, -0.0713293105364,             0,             0,             0,             0, -0.0721176862717, -0.0713293105364, 0.00320423278026,             0,             0,             0,             0, 0.00119049765635, 0.000657743948977, 0.0032042353414, 0.00413037557155, 0.000657743425108, -0.00345291569829, 0.000657743425108, 2.42007565498, 2.42136836052, 2.42024278641, 2.42155504227, 7.75962305069, -0.0318753682077,             0, 0.0503569915891,             0, -0.783299803734, 69.7005844116,            70, 69.7003250122, 7.75869512558, 2.75859379768, 7.75942516327, 2.75934100151, 7.75962305069, 7.75898838043,  2.7589673996, 7.75869512558, 2.75864720345, 7.75942516327, 2.75928783417, 0.019700108096, -0.0121701443568, 0.0197009257972, 0.0700528398156, 0.0197009257972, 1.01737904549, 1.08711802959, -1.01268696785, -1.08588182926, 0.0023699037265, 0.00234302831814, 0.000612212228589, 1.01734292507, 0.932112157345, -1.0126568079, -0.930887758732,             0,             0, -1.11022302463e-16, -1.11022302463e-16, -0.0092892087996, 0.500645279884, 0.514528930187, 0.500671505928, 0.514539659023, 0.500632286072, 0.514518260956
        0.425, 0.0412547886372,             0, -0.0107323080301, -0.0107325091958, -0.0411881320179,             0, -0.0107312994078, -0.0107310982421, 0.0670917630196, 0.000837231578771,             0, -107.471969604, 228.805435181, -107.441070557, 228.841766357, -122.265457153, 19.9782085419, 132.034927368, 20.0229759216, 18950.6015625, 18950.6015625, 10768.5986328, 5385.40917969, 5383.18945312, 18979.9140625, 18979.9140625, 10795.2744141, 5396.52734375, 5398.74707031,             0, 0.00260093063116, -0.0717985704541,             0,             0,             0,             0, -0.0725668072701, -0.0717985704541, 0.00260291015729,             0,             0,             0,             0, 0.000903895241208, 0.000418572279159, 0.00260291225277, 0.00410038372502, 0.000418571959017, -0.00350386300124, 0.000418571959017, 2.57102847099, 2.57264876366, 2.57121324539,  2.5728521347, 8.24361991882, -0.0346558615565,             0, 0.047795817256,             0, -0.854760289192, 69.6881561279,            70, 69.6880264282, 8.24266147614, 3.24255371094, 8.24344348907, 3.24336576462, 8.24361991882, 8.24298095703, 3.24295973778, 8.24266147614, 3.24261164665, 8.24344348907,  3.2433078289, 0.0214153006673, -0.0132354488596, 0.0214158259332, 0.0692067667842, 0.0214158259332, 1.01761484146, 1.08720397949, -1.01245141029, -1.08579587936, 0.00260093063116, 0.00257909554057, 0.000700333912391, 1.01757907867, 0.93220025301, -1.01242077351, -0.930799603462, 1.11022302463e-16,             0,             0,             0, -0.00929162278771, 0.500641047955, 0.514499008656, 0.500662624836, 0.514505803585, 0.500632762909, 0.514492213726
         0.45, 0.0427013114095,             0, -0.0110557926819, -0.0110559891909, -0.0399478785694,             0, -0.0110548110679, -0.0110546145588, 0.063431493938, 0.000760342285503,             0, -107.816238403, 246.302780151, -107.678466797, 246.506790161, -126.188415527,  21.180847168, 128.882751465, 21.2000656128, 18964.8515625, 18964.8515625, 10797.7099609, 5399.33056641, 5398.37988281, 18985.3222656, 18985.3222656, 10809.1396484, 5404.09423828, 5405.04541016,             0, 0.00283406744711, -0.0718569532037,             0,             0,             0,             0, -0.072580486536, -0.0718569532037, 0.00197909260169,             0,             0,             0,             0, 0.000625830376521, 0.000179341324838, 0.00197909399867, 0.00406960118562, 0.000179341179319, -0.00355376186781, 0.000179341179319, 2.72195410728, 2.72392058372,  2.7221558094, 2.72414016724, 8.72752475739, -0.0373379699886,             0, 0.0453202240169,             0, -0.924433410168, 69.6762390137,            70,  69.676322937, 8.72654151917, 3.72642707825, 8.72737216949, 3.72730112076, 8.72752475739, 8.72688484192,  3.7268640995, 8.72654151917,  3.7264893055, 8.72737216949, 3.72723889351, 0.0230482667685, -0.0142846275121, 0.0230484921485, 0.0683640688658, 0.0230484921485, 1.01785290241, 1.08729958534, -1.01221346855, -1.08570027351, 0.00283406744711, 0.00281744659878, 0.000798028253485, 1.01781737804, 0.932297945023, -1.01218235493, -0.930701911449,             0,             0, 1.11022302463e-16,             0, -0.00930599309504, 0.500631034374, 0.514488041401, 0.500648081303, 0.514490962029, 0.500627219677, 0.514485120773
        0.475, 0.0442679487169,             0, -0.0110743194818, -0.0110745029524, -0.0385694801807,             0, -0.0110734021291, -0.0110732186586, 0.0591703057289, 0.000642115890514,             0, -108.370422363, 264.537384033, -108.155426025,  264.93939209, -130.508041382, 21.5428180695, 125.357261658, 21.5416545868, 18980.5585938, 18980.5585938, 10776.1982422, 5388.12402344, 5388.07421875, 18994.7421875, 18994.7421875, 10776.8017578, 5388.37548828, 5388.42578125,             0, 0.00307220243849, -0.0714431777596,             0,             0,             0,             0, -0.0720824897289, -0.0714431777596, 0.00155094370712,             0,             0,             0,             0, 0.000422110344516, 9.46147338254e-06, 0.00155094487127, 0.00410351576284, 9.46146610659e-06, -0.00353652122431, 9.46146610659e-06, 2.87285351753, 2.87518644333, 2.87307143211, 2.87542176247, 9.21133995056, -0.0399194546044,             0, 0.0429271124303,             0, -0.992248833179, 69.6648483276,            70, 69.6651077271, 9.21033859253, 4.21021747589, 9.21121501923, 4.21114969254, 9.21133995056, 9.21070384979, 4.21068334579, 9.21033859253, 4.21028375626, 9.21121501923, 4.21108341217, 0.0245818886906, -0.0153324808925, 0.0245819017291, 0.0675046220422, 0.0245819017291, 1.01809489727, 1.08740711212, -1.0119715929, -1.08559262753, 0.00307220243849, 0.00305916881189, 0.000907152949367, 1.01805913448, 0.932407081127, -1.0119407177, -0.930592775345,             0,             0,             0,             0, -0.00932691153139, 0.500618159771, 0.514501810074, 0.500632107258, 0.514501929283, 0.500617623329, 0.51450163126
          0.5, 0.0457625873387,             0, -0.0109530873597, -0.0109532540664, -0.0372554846108,             0, -0.0109522519633, -0.0109520852566, 0.0544725656509, 0.00049860071158,             0, -109.071090698, 283.824462891, -108.810882568, 284.418609619, -135.060653687, 21.3855667114, 121.594177246, 21.3757896423, 18995.9453125, 18995.9453125, 10724.8388672,  5362.2578125, 5362.58105469, 19007.3652344, 19007.3652344,  10720.953125, 5360.63818359, 5360.31494141,             0, 0.00331617402844, -0.070742495358,             0,             0,             0,             0, -0.0712679848075, -0.070742495358, 0.00142797280569,             0,             0,             0,             0, 0.000320849183481, -6.09618327871e-05, 0.00142797385342, 0.00423025991768, -6.09617854934e-05, -0.00342525658198, -6.09617854934e-05, 3.02372837067, 3.02645015717, 3.02396130562, 3.02670073509, 9.69507312775, -0.042399648577,             0, 0.040627643466,             0, -1.05799055099,  69.654006958,            70, 69.6543273926,  9.6940574646, 4.69393014908, 9.69497585297, 4.69491672516, 9.69507312775,  9.6944437027,  4.6944231987,  9.6940574646, 4.69400072098, 9.69497585297, 4.69484615326, 0.0260032191873, -0.0163912400603, 0.0260031428188, 0.0666266605258, 0.0260031428188, 1.01834106445, 1.08752775192, -1.01172554493, -1.08547198772, 0.00331617402844, 0.00330420187674, 0.00102839316241, 1.01830410957, 0.932528316975, -1.0116956234, -0.930471539497,             0,             0, 1.11022302463e-16,             0, -0.00935141835362, 0.500603854656, 0.514529109001, 0.500616371632, 0.514528155327, 0.500604748726, 0.51453012228
        0.525, 0.0470110364258,             0, -0.0108641730621, -0.0108643239364, -0.036192972213,             0, -0.0108634205535, -0.0108632706106, 0.0494450815022, 0.000355837750249,             0, -109.780303955, 304.352020264, -109.496963501,  305.10345459, -139.479476929, 21.1137599945, 117.960731506, 21.1069049835, 19010.8164062, 19010.8164062, 10682.6484375, 5341.21826172, 5341.43017578, 19022.5664062, 19022.5664062, 10680.1005859,    5340.15625, 5339.94433594,             0, 0.00356439920142, -0.0700808390975,             0,             0,             0,             0, -0.0704894438386, -0.0700808390975, 0.00158639450092,             0,             0,             0,             0, 0.000309587368974, -3.99753371312e-05, 0.00158639566507, 0.00443732179701, -3.99753080274e-05, -0.00323418527842, -3.99753080274e-05, 3.17458057404, 3.17771601677, 3.17482733727, 3.17798066139, 10.1787347794, -0.0447753742337,             0, 0.0384379327297,             0, -1.12123084068, 69.6437454224,            70, 69.6439819336, 10.1777048111,  5.1775727272, 10.1786613464, 5.17860794067, 10.1787347794, 10.1781101227, 5.17809009552, 10.1777048111, 5.17764663696, 10.1786613464, 5.17853403091, 0.0273028109223, -0.0174671690911, 0.0273027624935, 0.0657368153334, 0.0273027624935, 1.01858985424, 1.08766078949, -1.01147687435, -1.08533895016, 0.00356439920142, 0.0035511625465, 0.00116126262583, 1.01855111122, 0.932661175728, -1.01144862175, -0.93033862114,             0,             0, 1.11022302463e-16,             0, -0.00937798246741, 0.500588536263, 0.514550328255, 0.500601232052, 0.514549672604, 0.500589191914, 0.514550983906
         0.55, 0.0479250177741,             0, -0.0108726173639, -0.0108727514744, -0.0354684703052,             0, -0.010871944949, -0.0108718099073, 0.0441490933299, 0.0002367701818,             0, -110.367622375, 326.030883789, -110.070930481, 326.876831055, -143.373046875, 21.0235786438, 114.841255188, 21.0251045227,  19024.578125,  19024.578125, 10679.7246094, 5339.92871094, 5339.79589844,  19038.296875,  19038.296875, 10681.3222656, 5340.59472656, 5340.72753906,             0, 0.0038135482464, -0.0697358995676,             0,             0,             0,             0, -0.0700491890311, -0.0697358995676, 0.00190059759188,             0,             0,             0,             0, 0.000346606888343, 2.50674402196e-05, 0.00190059898887, 0.00468254741281, 2.50674220297e-05, -0.00300574698485, 2.50674220297e-05, 3.32541203499, 3.32898640633, 3.32567167282, 3.32926392555, 10.6623315811, -0.0470390878618,             0, 0.0363638140261,             0, -1.18137526512, 69.6341018677,            70, 69.6341629028, 10.6612882614, 5.66115093231,  10.662279129, 5.66223049164, 10.6623315811, 10.6617107391, 5.66169071198, 10.6612882614, 5.66122770309,  10.662279129, 5.66215372086, 0.0284732822329, -0.018560141325, 0.0284733138978, 0.0648334696889, 0.0284733138978, 1.01883852482, 1.08780455589, -1.01122832298, -1.08519518375, 0.0038135482464, 0.00379775976762, 0.00130450259894, 1.01879763603, 0.932804405689, -1.01120209694, -0.930195391178, 1.11022302463e-16,             0,             0,             0, -0.00940404739231, 0.500573456287, 0.514550745487, 0.500587165356, 0.51455116272, 0.500573158264, 0.514550328255
        0.575, 0.0485306419432,             0, -0.0109575996175, -0.0109577178955, -0.0350316502154,             0, -0.0109570072964, -0.0109568890184, 0.038603220135, 0.000151149040903,             0, -110.780464172, 348.374053955, -110.469223022, 349.238464355, -146.487335205,  21.181760788, 112.437606812, 21.1897315979, 19034.8710938, 19034.8710938, 10717.2333984, 5358.81542969, 5358.41845703, 19050.4824219, 19050.4824219, 10722.0019531, 5360.80273438, 5361.19921875,             0, 0.0040598330088, -0.0697919353843,             0,             0,             0,             0, -0.0700393095613, -0.0697919353843, 0.00220997352153,             0,             0,             0,             0, 0.00038245858741, 7.48154197936e-05, 0.00220997515135, 0.00491564488038, 7.48153615859e-05, -0.00278814299963, 7.48153615859e-05, 3.47622489929, 3.48026299477,  3.4764957428, 3.48055171967, 11.1458711624, -0.0491803064942,             0, 0.0343915522099,             0, -1.23779273033, 69.6251068115,            70, 69.6250076294, 11.1448125839, 6.14467000961, 11.1458330154, 6.14578914642, 11.1458711624, 11.1452493668, 6.14522981644, 11.1448125839, 6.14475011826, 11.1458320618, 6.14570951462, 0.029508182779, -0.019666172564, 0.0295082740486, 0.0638963654637, 0.0295082740486, 1.01908433437, 1.08795726299, -1.01098263264, -1.08504247665, 0.0040598330088, 0.00404153205454, 0.00145671796054, 1.01904141903, 0.932956576347, -1.01095831394, -0.930043160915,             0,             0,             0,             0, -0.00942445080727, 0.500561952591, 0.514530777931, 0.500576674938, 0.514532029629, 0.500560760498, 0.514529585838
          0.6, 0.0489372760057,             0, -0.0110068535432, -0.0110069550574, -0.0347365140915,             0, -0.0110063478351, -0.0110062463209, 0.0328293778002, 9.24196574488e-05,             0, -111.059539795, 370.624481201, -110.72808075, 371.452850342, -148.788009644, 21.4150257111, 110.682876587, 21.4223995209, 19038.0351562, 19038.0351562, 10769.0556641, 5384.70898438, 5384.34716797, 19054.1855469, 19054.1855469, 10773.4052734, 5386.52148438, 5386.88330078,             0, 0.00430027907714, -0.0701277256012,             0,             0,             0,             0, -0.0703267976642, -0.0701277256012, 0.00238795997575,             0,             0,             0,             0, 0.000380254554329, 6.82442114339e-05, 0.00238796160556, 0.00509866233915, 6.82441605022e-05, -0.00261575821787, 6.82441605022e-05, 3.62702012062, 3.63154578209, 3.62730097771, 3.63184452057, 11.6293554306, -0.0511882230639,             0, 0.0324952788651,             0, -1.28996133804, 69.6167678833,            70, 69.6165924072, 11.6282815933, 6.62813425064, 11.6293258667, 6.62928724289, 11.6293554306, 11.6287307739, 6.62871074677, 11.6282815933, 6.62821674347, 11.6293258667,  6.6292052269, 0.0304015316069, -0.0207804907113, 0.0304016154259, 0.0628936290741, 0.0304016154259, 1.01932501793, 1.08811736107, -1.01074206829, -1.08488225937, 0.00430027907714, 0.00428054947406, 0.00161691836547, 1.01928043365, 0.933116793633, -1.01071929932, -0.92988294363,             0,             0,             0,             0, -0.00943228788674, 0.500558435917, 0.514504492283, 0.500573456287, 0.514505565166, 0.500556945801, 0.514503359795
        0.625, 0.0492778755724,             0, -0.0109165152535, -0.0109165972099, -0.0344230271876,             0, -0.0109161045402, -0.0109160225838, 0.0268619116396, 4.42818236479e-05,             0, -111.296653748, 392.107086182, -110.940086365,  392.88079834, -150.440963745, 21.4631156921, 109.301765442, 21.4613246918, 19031.0507812, 19031.0507812, 10802.2128906, 5401.09130859, 5401.12207031, 19045.9121094, 19045.9121094, 10801.8408203, 5400.93603516, 5400.90478516,             0, 0.0045334356837, -0.0705330073833,             0,             0,             0,             0, -0.0706803128123, -0.0705330073833, 0.00238343933597,             0,             0,             0,             0, 0.000326351437252, -5.83941118748e-06, 0.00238344119862, 0.00521689001471, -5.83940664001e-06, -0.00250047049485, -5.83940664001e-06, 3.77779865265, 3.78283500671,  3.7780880928, 3.78314232826, 12.1127853394, -0.0530532486737,             0, 0.0306574739516,             0, -1.33756315708, 69.6090774536,            70, 69.6089172363, 12.1116981506, 7.11154603958, 12.1127624512, 7.11272764206, 12.1127853394,  12.112156868, 7.11213684082, 12.1116981506, 7.11163043976, 12.1127624512, 7.11264324188, 0.0311480034143, -0.0218988656998, 0.0311479959637, 0.0618024207652, 0.0311479959637, 1.01955926418, 1.08828449249, -1.01050782204, -1.08471512794, 0.0045334356837, 0.00451378198341, 0.00178472790867, 1.01951360703, 0.933284580708, -1.01048600674, -0.929715156555, -1.11022302463e-16,             0, -1.11022302463e-16,             0, -0.0094219725579, 0.500566244125, 0.514488756657, 0.50058054924, 0.514488637447, 0.50056540966, 0.514488875866
         0.65, 0.0496561788023,             0, -0.01061522495, -0.0106152864173, -0.0339889936149,             0, -0.0106149157509, -0.0106148542836, 0.0207619648427, -1.0518819181e-05,             0, -111.563735962, 412.528442383, -111.180931091, 413.264404297, -151.717880249, 21.1130886078, 107.967750549, 21.0958766937, 19013.6308594, 19013.6308594, 10799.9238281, 5399.61425781, 5400.30957031,  19025.671875,  19025.671875, 10791.5712891,  5396.1328125, 5395.43798828,             0, 0.00475935311988, -0.0708632916212,             0,             0,             0,             0, -0.0709409713745, -0.0708632916212, 0.00222363416106,             0,             0,             0,             0, 0.000229272030992, -0.000131064836751, 0.00222363579087, 0.00527796614915, -0.000131064734887, -0.00243454915471, -0.000131064734887, 3.92856168747, 3.93413209915, 3.92885804176, 3.93444633484, 12.5961618423, -0.0547673776746,             0, 0.0288876611739,             0, -1.38049733639, 69.6020126343,            70,  69.601890564, 12.5950641632, 7.59490919113, 12.5961437225, 7.59611320496, 12.5961618423, 12.5955314636, 7.59551095963, 12.5950641632, 7.59499502182, 12.5961437225, 7.59602737427, 0.0317434929311, -0.0230174027383, 0.0317433290184, 0.0606281645596, 0.0317433290184, 1.01978707314, 1.08845889568, -1.01028001308, -1.08454072475, 0.00475935311988, 0.00474105589092, 0.00196026684716, 1.01974093914, 0.933460116386, -1.01025879383, -0.929539561272,             0,             0,             0,             0, -0.00939250830561, 0.500585436821, 0.514491975307, 0.500598311424, 0.51448982954, 0.500586032867, 0.514494121075
        0.675, 0.0501144453883,             0, -0.0100960023701, -0.0100960442796, -0.0334258489311,             0, -0.0100957965478, -0.0100957546383, 0.014600628987, -8.22373840492e-05,             0, -111.86920929,  432.03894043, -111.463844299, 432.769622803, -152.887374878, 20.3059921265, 106.454246521, 20.2714805603, 18988.8945312, 18988.8945312, 10771.8740234,  5385.1953125, 5386.67822266,  18997.453125,  18997.453125, 10754.0527344, 5377.76806641, 5376.28515625,             0, 0.00497903348878, -0.0711236745119,             0,             0,             0,             0, -0.0711154565215, -0.0711236745119, 0.00198798580095,             0,             0,             0,             0, 0.000114388167276, -0.000279623636743, 0.00198798743077, 0.00530655728653, -0.000279623403912, -0.0023964473512, -0.000279623403912, 4.07931041718,  4.0854382515,  4.0796122551, 4.08575820923, 13.0794906616, -0.0563229769468,             0, 0.027227178216,             0, -1.41882395744, 69.5955352783,            70, 69.5954208374, 13.0783863068, 8.07822704315, 13.0794754028, 8.07944774628, 13.0794906616, 13.0788583755, 8.07883739471, 13.0783863068, 8.07831478119, 13.0794754028, 8.07936096191, 0.0321855582297, -0.0241308771074, 0.0321852080524, 0.0594097785652, 0.0321852080524, 1.02000892162, 1.08864116669, -1.01005804539, -1.08435845375, 0.00497903348878, 0.00496271532029, 0.00214383960702, 1.01996254921, 0.933643698692, -1.01003706455, -0.92935603857, 1.11022302463e-16,             0,             0,             0, -0.00934877432883, 0.50061249733, 0.514508664608, 0.500623583794, 0.514504134655, 0.500614821911, 0.514513254166
          0.7, 0.0505772195756,             0, -0.00938142091036, -0.0093814432621, -0.0328345783055,             0, -0.00938130915165, -0.00938128773123, 0.00845705065876, -0.000172000101884,             0, -112.16153717, 451.031463623, -111.741325378, 451.800811768, -154.103973389, 19.0981864929, 104.729606628, 19.0495758057, 18962.2636719, 18962.2636719, 10745.3808594, 5371.58056641, 5373.79980469,  18967.671875,  18967.671875, 10718.7080078, 5360.46337891, 5358.24414062,             0, 0.00519367540255, -0.0714314505458,             0,             0,             0,             0, -0.0713368803263, -0.0714314505458, 0.00176914874464,             0,             0,             0,             0, 1.08944304884e-05, -0.000418526557041, 0.00176915014163, 0.00532647734508, -0.000418526236899, -0.00236490927637, -0.000418526236899, 4.23004627228, 4.23675441742,  4.2303519249, 4.23707962036, 13.5627775192, -0.0576602481306,             0, 0.0257613770664,             0, -1.45267689228, 69.5896224976,            70, 69.5894546509, 13.5616674423, 8.56150627136, 13.5627622604,  8.5627374649, 13.5627775192, 13.5621423721,  8.5621213913, 13.5616674423,  8.5615940094, 13.5627622604, 8.56264972687, 0.0324736610055, -0.0251799933612, 0.0324731394649, 0.0582321099937, 0.0324731394649,  1.0202255249, 1.08883166313, -1.0098413229, -1.08416795731, 0.00519367540255, 0.00517919380218, 0.00233563128859, 1.02017903328, 0.933835506439, -1.00982058048, -0.929164230824,             0,             0,             0,             0, -0.00929987896234, 0.500641286373, 0.514524459839, 0.500650763512, 0.514517664909, 0.50064522028, 0.514531254768
        0.725, 0.0511083118618,             0, -0.00854584295303, -0.00854584854096, -0.0322414413095,             0, -0.00854581408203, -0.00854580849409, 0.00239664665423, -0.000273697893135,             0, -112.383476257, 469.806304932, -111.959121704, 470.649108887, -155.421066284, 17.6256923676, 102.931732178, 17.5694408417,  18939.109375,  18939.109375, 10745.5664062, 5371.39697266, 5374.16943359, 18942.4550781, 18942.4550781, 10712.2431641,  5357.5078125, 5354.73535156,             0, 0.00540401367471, -0.0718932524323,             0,             0,             0,             0, -0.0717289373279, -0.0718932524323, 0.001636558678,             0,             0,             0,             0, -6.01173269388e-05, -0.00052287831204, 0.00163655995857, 0.00537055777386, -0.000522877904586, -0.00231558410451, -0.000522877904586, 4.38077068329, 4.38808202744, 4.38107872009, 4.38841104507, 14.0460281372, -0.0589052177966,             0, 0.0244543422014,             0, -1.48217844963, 69.5842666626,            70, 69.5840301514, 14.0449132919, 9.04474925995, 14.0460090637, 9.04598617554, 14.0460281372, 14.0453882217, 9.04536819458, 14.0449132919, 9.04483795166, 14.0460090637,  9.0458984375, 0.0326090790331, -0.0262894462794, 0.032608423382, 0.0570605359972, 0.032608423382, 1.02043747902, 1.08903062344, -1.00962936878,  -1.083968997, 0.00540401367471, 0.00539065152407, 0.00253547076136, 1.02039051056, 0.934035301208, -1.0096091032, -0.92896437645,             0,             0,             0,             0, -0.00925549957901, 0.500665962696, 0.514526069164, 0.500674366951,  0.5145175457, 0.500670969486, 0.514534592628
         0.75, 0.05148178339,             0, -0.00766799179837, -0.00766798434779, -0.0318398103118,             0, -0.0076680299826, -0.00766803743318, -0.00352672371082, -0.000377385120373,             0, -112.523597717, 488.305023193, -112.104118347, 489.224365234, -156.738098145, 16.0278282166, 101.270385742, 15.9702043533, 18922.7929688, 18922.7929688, 10777.2851562, 5387.08300781, 5390.20166016, 18925.3515625, 18925.3515625, 10739.8037109,  5371.4609375, 5368.34277344,             0, 0.00560995750129, -0.0724942162633,             0,             0,             0,             0, -0.0722832232714, -0.0724942162633, 0.00161465397105,             0,             0,             0,             0, -9.20020465855e-05, -0.000588120659813, 0.00161465525161, 0.0054312995635, -0.000588120194152, -0.00225297105499, -0.000588120194152, 4.53148555756, 4.53942012787,  4.5317940712, 4.53975152969, 14.5292453766, -0.0599043555558,             0, 0.023427028209,             0, -1.50738739967,  69.579460144,            70, 69.5791931152, 14.5281276703, 9.52796173096, 14.5292186737, 9.52919769287, 14.5292453766, 14.5286006927, 9.52857971191, 14.5281276703, 9.52805042267, 14.5292186737, 9.52910995483, 0.032594602555, -0.0273029282689, 0.032593857497, 0.0560187995434, 0.032593857497, 1.02064406872, 1.08923733234, -1.00942265987, -1.0837624073, 0.00560995750129, 0.00559679698199, 0.00274273031391, 1.02059662342, 0.934242606163, -1.00940299034, -0.9287571311, 1.11022302463e-16,             0,             0, -1.11022302463e-16, -0.00922239664942, 0.500683009624, 0.514510929585, 0.500690996647, 0.514501392841, 0.500688433647, 0.514520525932
        0.775, 0.0517798662186,             0, -0.0067926091142, -0.00679259141907, -0.0315673425794,             0, -0.00679269712418, -0.00679271481931, -0.00926180649549, -0.000473813939607,             0, -112.632247925, 506.177459717, -112.227043152, 507.141845703, -157.889053345,  14.390291214, 99.9578781128, 14.3351335526, 18913.9707031, 18913.9707031, 10822.4716797, 5409.57324219,  5412.8984375, 18916.8398438, 18916.8398438,       10782.5, 5392.91259766, 5389.58691406,             0, 0.00581065192819, -0.0730785429478,             0,             0,             0,             0, -0.0728352218866, -0.0730785429478, 0.00168354786001,             0,             0,             0,             0, -9.10208327696e-05, -0.000627205648925, 0.001683549257, 0.00551472231746, -0.000627205183264, -0.00217263679951, -0.000627205183264, 4.68219041824, 4.69076728821, 4.68249845505, 4.69110012054, 15.0124311447, -0.0607928000391,             0, 0.0225641727448,             0, -1.52829933167, 69.5752029419,            70, 69.5749893188, 15.0113124847, 10.0111455917, 15.0123949051, 10.0123758316, 15.0124311447, 15.0117816925, 10.0117607117, 15.0113124847, 10.0112333298, 15.0123949051, 10.0122880936, 0.032434284687, -0.0283515304327, 0.0324334837496, 0.0549957044423, 0.0324334837496, 1.02084493637, 1.08945059776, -1.00922191143, -1.08354902267, 0.00581065192819, 0.00579693960026, 0.00295640924014, 1.02079677582, 0.934456288815, -1.00920283794, -0.928543448448, -1.11022302463e-16,             0,             0,             0, -0.00920291710645, 0.500691831112, 0.514488518238, 0.500700056553, 0.514478325844, 0.500697076321, 0.514498710632
          0.8, 0.0518348515034,             0, -0.00594066083431, -0.00594063661993, -0.0314978584647,             0, -0.00594078423455, -0.00594080844894, -0.0147631969303, -0.000558053608984,             0, -112.800415039, 523.095336914, -112.415039062, 524.059753418, -158.734436035, 12.7403869629, 99.0952453613, 12.6892976761, 18911.5898438, 18911.5898438, 10853.9492188, 5425.23583984, 5428.71386719, 18915.3105469, 18915.3105469, 10812.1484375, 5407.81298828, 5404.33496094,             0, 0.00600482616574, -0.0734354183078,             0,             0,             0,             0, -0.0731558725238, -0.0734354183078, 0.00179577735253,             0,             0,             0,             0, -7.22712866263e-05, -0.000655911222566, 0.00179577886593, 0.00559163140133, -0.000655910640489, -0.00209479592741, -0.000655910640489,  4.8328871727, 4.84212350845, 4.83319282532, 4.84245634079, 15.4955854416, -0.0614202655852,             0, 0.0219221394509,             0, -1.54488909245, 69.5714645386,            70, 69.5713806152, 15.4944696426,  10.494301796, 15.4955396652, 10.4955205917, 15.4955854416, 15.4949321747, 10.4949111938, 15.4944696426, 10.4943885803, 15.4955396652, 10.4954338074, 0.0321334302425, -0.0292797200382, 0.0321325883269, 0.0540529005229, 0.0321325883269, 1.02103888988,  1.0896692276, -1.00902795792, -1.08333039284, 0.00600482616574, 0.00599020300433, 0.00317532196641, 1.02099001408, 0.93467515707, -1.00900959969, -0.928324520588, -1.11022302463e-16,             0, -1.11022302463e-16,             0, -0.00919594056904, 0.50069385767, 0.514472961426, 0.500702440739, 0.514462292194, 0.500698685646, 0.514483571053
        0.825, 0.0517976395786,             0, -0.00510573247448, -0.00510570406914, -0.0316023044288,             0, -0.00510587543249, -0.00510590430349, -0.0199900362641, -0.000628565961961,             0, -113.097320557, 539.026977539, -112.735191345, 539.948486328, -159.198059082, 11.0861263275, 98.6832351685, 11.0391702652, 18914.2871094, 18914.2871094, 10854.5361328, 5425.43798828, 5429.09814453, 18918.8710938, 18918.8710938, 10810.5449219, 5407.10253906, 5403.44287109,             0, 0.00619121873751, -0.0734308362007,             0,             0,             0,             0, -0.0730962231755, -0.0734308362007, 0.00189848453738,             0,             0,             0,             0, -5.16552609042e-05, -0.000690267595928, 0.00189848605078, 0.00565843190998, -0.000690267013852, -0.00203405367211, -0.000690267013852, 4.98357582092, 4.99348926544, 4.98387813568,  4.9938211441, 15.9787092209, -0.0619221739471,             0, 0.0214873440564,             0, -1.55715942383, 69.5682067871,            70, 69.5682830811,  15.977602005, 10.9774332047, 15.9786548615,  10.978635788, 15.9787092209,  15.978055954, 10.9780349731,  15.977602005, 10.9775190353, 15.9786548615, 10.9785499573, 0.0316984020174, -0.0302165709436, 0.0316975191236, 0.053183156997, 0.0316975191236,  1.0212250948, 1.08989191055, -1.00884187222, -1.08310770988, 0.00619121873751, 0.00617576250806, 0.00339826662093, 1.02117562294, 0.934898138046, -1.00882411003, -0.928101599216, -1.11022302463e-16,             0,             0,             0, -0.00919914618134, 0.500690639019, 0.514473199844, 0.500699698925, 0.514461994171, 0.500695049763, 0.514484405518
         0.85, 0.051627676934,             0, -0.00427014473826, -0.00427011493593, -0.031704954803,             0, -0.00427029421553, -0.00427032401785, -0.0249121170491, -0.000686594343279,             0, -113.530525208, 554.285400391, -113.191612244, 555.138183594, -159.283660889,  9.4232711792, 98.6611175537, 9.38011741638, 18921.4863281, 18921.4863281, 10828.1816406, 5412.12890625, 5416.05273438, 18926.5332031, 18926.5332031, 10781.0234375, 5392.47314453, 5388.54980469,             0, 0.00636892905459, -0.0730935409665,             0,             0,             0,             0, -0.0726828128099, -0.0730935409665, 0.00195267784875,             0,             0,             0,             0, -4.13765046687e-05, -0.000739967392292, 0.00195267947856, 0.00569609552622, -0.000739966810215, -0.00198953505605, -0.000739966810215, 5.13425731659, 5.14486646652, 5.13455486298, 5.14519643784, 16.4618053436, -0.0622242502868,             0, 0.0211177766323,             0, -1.56518006325, 69.5653991699,            70, 69.5655899048, 16.4607124329, 11.4605436325, 16.4617443085, 11.4617242813, 16.4618053436, 16.4611549377, 11.4611339569, 16.4607124329, 11.4606285095, 16.4617443085,  11.461640358, 0.0311364866793, -0.0310805458575, 0.0311355441809, 0.0522517412901, 0.0311355441809, 1.02140271664, 1.09011733532, -1.00866413116, -1.08288228512, 0.00636892905459, 0.00635303882882, 0.00362416636199, 1.02135288715, 0.93512403965, -1.00864672661, -0.927875697613,             0, 1.11022302463e-16,             0, 1.11022302463e-16, -0.00921075791121, 0.500683069229, 0.514487445354, 0.500692367554, 0.514475405216, 0.50068718195, 0.514499485493
