Time,Ay,Bk_Stat,GearStat,Pitch,Roll,Roll_E,Roll_L1,Roll_L2,Roll_R1,Roll_R2,Rot_L1,Rot_L2,Rot_R1,Rot_R2,Steer_SW,Vx,VxTarget,Vxz_Fwd,Xo,Xpreview,X_Design,X_L1,X_L2,X_R1,X_R2,X_Target,Yaw,Yaw_L1,Yaw_L2,Yaw_R1,Yaw_R2,Yo,Ypreview,Y_Design,Y_L1,Y_L2,Y_R1,Y_R2,Y_Target,Zcg_SM,Zo,Z_L1,Z_L2,Z_R1,Z_R2
0, -0.001776605635668, 0, 6, 2.01196759821, 0.1003533393543, 0.1004152438468, 1.106759094411, 1.592403379332, -0.9060532458912, -1.391698651452, 0.005578095524959, 0.00560428095074, 0.005580042526599, 0.005602334309397, 0, 99.96459874838, 100, 100, 87.0358263826, 17.40704583707, 87.0358263826, 87.41006218464, 85.38402886262, 86.68118827237, 84.65269253849, 87.0358263826, -29.5003960789, -29.33912073051, -29.75655259266, -29.66871209901, -29.2513134275, -49.24190177042, -9.848591535138, -49.24190177042, -48.60407299563, -47.45486733685, -49.89214756663, -48.74729351113, -49.24190177042, 45.53908883468, 45.12341948914, 45.45451164932, 45.51633059392, 45.45191943629, 45.51372962341
0.025, -0.1162450447518, 0, 6, 2.009357871864, 0.07923963160926, 0.07928838498157, 1.016405038144, 1.634702118369, -1.033715869597, -1.471686933397, 0.3767731220991, 0.3764672560238, 0.375949686638, 0.3763826786079, -15.96437702474, 99.96602744638, 100, 100.0011131465, 87.63979541297, 104.0121553627, 87.64004543395, 88.01466337528, 85.98832591865, 87.28459111389, 85.25678276914, 87.64004543395, -29.50987307092, -30.18527754918, -29.76875540938, -30.51336482736, -29.25909932354, -49.58420641398, -58.85133406303, -49.5837645269, -48.94662768382, -47.79678841618, -50.23402047457, -49.08909452442, -49.5837645269, 45.52064665616, 45.10502952575, 45.43582994296, 45.49761398299, 45.43381259595, 45.49535345126
0.05, -0.1183196633002, 0, 6, 2.002135008569, 0.02963409800841, 0.02965219991103, 0.9735344043455, 1.606907560338, -1.072889045815, -1.513837476357, 0.7478267854036, 0.7474977775033, 0.7464258594547, 0.7469103167191, -15.8042079857, 99.96459785738, 100, 99.99932192753, 88.24302778041, 104.6084650661, 88.24428399559, 88.61848291044, 86.59301902554, 87.8874230882, 85.8604889233, 88.24428399559, -29.55414688573, -30.23397494555, -29.81406776863, -30.56393096004, -29.30535423193, -49.92787087279, -59.20711419954, -49.9256507153, -49.29031932052, -48.1389156627, -50.57715338009, -49.43066425429, -49.9256507153, 45.50227181507, 45.08679949456, 45.41723158942, 45.47863267209, 45.41592320828, 45.4771786242
0.075, -0.1207889860677, 0, 6, 1.992558250314, -0.03014824980577, -0.03016648993209, 0.9294190709159, 1.579204196385, -1.109270272199, -1.546556185569, 1.119120163605, 1.118708822234, 1.116660700594, 1.117142959001, -15.51647527889, 99.96151156496, 100, 99.99596608774, 88.8455257729, 105.1984368507, 88.84851532589, 89.22196158894, 87.19807441625, 88.48914109101, 86.46377374965, 88.84851532589, -29.63282864255, -30.30771611576, -29.89595077452, -30.63825506981, -29.38757833822, -50.27282753226, -59.57399153655, -50.2675441474, -49.63547333489, -48.48129753292, -50.92131502114, -49.77204054971, -50.2675441474, 45.48396682899, 45.06868693239, 45.39874229524, 45.45973905007, 45.39796885827, 45.45905712482
0.1, -0.1325054551893, 0, 6, 1.983556534857, -0.08076013680955, -0.08080855718694, 0.8900373681501, 1.569431195278, -1.140286902597, -1.562270272287, 1.490595128884, 1.490045896216, 1.486687867831, 1.487110797593, -15.12572799173, 99.95654733595, 100, 99.99084143279, 89.44738034005, 105.7832364124, 89.4527078309, 89.82507385214, 87.80333216357, 89.08988267121, 87.06663447309, 89.4527078309, -29.73880523712, -30.39891810985, -30.00670250542, -30.72895266892, -29.49813918287, -50.61884079988, -59.94979948178, -50.60942588722, -49.98190976919, -48.82400772869, -51.26641208673, -50.11338267031, -50.60942588722, 45.46572341933, 45.05062472213, 45.38038412317, 45.44111857045, 45.37984759483, 45.44085506508
0.125, -0.1484840798947, 0, 6, 1.977082453671, -0.1155584577074, -0.1156272899858, 0.8600135868134, 1.575556032273, -1.161888198126, -1.562451445387, 1.862192914433, 1.861459988703, 1.856546143005, 1.856856407732, -14.65567243288, 99.94994949329, 100, 99.98418916032, 90.04862302281, 106.3639909871, 90.05683678607, 90.42776511187, 88.40859724639, 89.68975795461, 87.66904308582, 90.05683678607, -29.8650884371, -30.50251642415, -30.13729267639, -30.8313286951, -29.62895257919, -50.96579614027, -60.3324429499, -50.95128088422, -50.32950394606, -49.16716899312, -51.61240656877, -50.4549060162, -50.95128088422, 45.4475269913, 45.03255877972, 45.36208461827, 45.42273332443, 45.36161755523, 45.42259759721
0.15, -0.1653460428979, 0, 6, 1.973918177742, -0.1385969385373, -0.1386792295381, 0.8365118447425, 1.587677808917, -1.176871663166, -1.55354311508, 2.233864454216, 2.232912052117, 2.226270537328, 2.22643268172, -14.12608677948, 99.94186630113, 100, 99.97615196879, 90.64923733869, 106.9416434035, 90.66088673224, 91.02996696241, 89.01367980511, 90.28883664414, 88.27095348677, 90.66088673224, -30.00574292464, -30.6142801177, -30.28086161754, -30.94168792229, -29.77346373471, -51.31368552674, -60.7201738574, -51.29309933003, -50.67819100659, -49.51092595073, -51.95930796344, -50.79683524693, -51.29309933003, 45.42935783845, 45.01445354882, 45.34375282361, 45.40445429283, 45.34335007015, 45.40436379489
0.175, -0.1810981823294, 0, 6, 1.973921431268, -0.1576439035416, -0.1577375039123, 0.814060942209, 1.597153333202, -1.190643837643, -1.544495240509, 2.605570100091, 2.604376018607, 2.595891090107, 2.595899690502, -13.55350778919, 99.93290713063, 100, 99.96732676073, 91.24919129698, 107.5169887382, 91.26484997244, 91.63161157613, 89.61840931323, 90.8871645222, 88.87231342281, 91.26484997244, -30.15573348766, -30.73068999518, -30.4323279874, -31.05682328016, -29.92663583786, -51.6625464645, -61.11153296695, -51.63487580881, -51.02793935776, -49.85542432542, -52.30714688859, -51.13938194843, -51.63487580881, 45.41119156724, 44.9962875347, 45.32533008787, 45.38616374306, 45.32508021217, 45.38620030854
0.2, -0.1950391943712, 0, 6, 1.976434921137, -0.1785990459436, -0.1787053587774, 0.7889235813758, 1.599877070217, -1.207079155139, -1.540956545548, 2.977277577532, 2.975832735524, 2.965435661818, 2.965286364034, -12.95217004645, 99.92345068195, 100, 99.95807564532, 91.84846112024, 108.0907226413, 91.86872233141, 92.23264015385, 90.22263881987, 91.48477826046, 89.4730732698, 91.86872233141, -30.31070089406, -30.84876515773, -30.58776685356, -31.17384778464, -30.08445278483, -52.01241670342, -61.50526931706, -51.97661560642, -51.3787306529, -50.20079919704, -52.65595821023, -51.48273565569, -51.97661560642, 45.39300231205, 44.97804817255, 45.30679993652, 45.36780000452, 45.30680370609, 45.36809538806
0.225, -0.2071747642939, 0, 6, 1.98067622517, -0.2033009238055, -0.2034224609962, 0.7606829906209, 1.595848850512, -1.227091715333, -1.543855469787, 3.348960918584, 3.347267076359, 3.334929017802, 3.334623511751, -12.33399287123, 99.91382513462, 100, 99.94869927237, 92.44703701011, 108.66343844, 92.47249933082, 92.83300463708, 90.8262462096, 92.08170846079, 90.07318991765, 92.47249933082, -30.4669781798, -30.96618169514, -30.74414108085, -31.29045121732, -30.24360172216, -52.36331617066, -61.9003401264, -52.31832760332, -51.73055222668, -50.54716663358, -53.00577384136, -51.82705717667, -52.31832760332, 45.37476681633, 44.95972798698, 45.28817929381, 45.34935713586, 45.28849550407, 45.35000071532
0.25, -0.2174622654951, 0, 6, 1.985871292845, -0.230320092652, -0.2304585061806, 0.7315802877447, 1.587079928176, -1.249384357939, -1.551325320383, 3.720599825098, 3.718665957089, 3.704392794933, 3.703937528116, -11.70876989494, 99.9042971575, 100, 99.93942700334, 93.04491997248, 109.2356302769, 93.07618811166, 93.43266661897, 91.42913127557, 92.67798073334, 90.67262726239, 93.07618811166, -30.62156035734, -31.08130204025, -30.89885856734, -31.40530510648, -30.40120106118, -52.71525012531, -62.29589983437, -52.66000497416, -52.08339606036, -50.89462302909, -53.35662227905, -52.1724800867, -52.66000497416, 45.35646916249, 44.94132661096, 45.26950716007, 45.33085604775, 45.27014221746, 45.33186265782
0.275, -0.2253357203552, 0, 6, 1.991212297247, -0.2568690897608, -0.2570242903045, 0.704726680357, 1.575765484591, -1.271966154489, -1.560758373184, 4.092178834302, 4.090017534382, 4.073846253522, 4.073249987498, -11.08415926398, 99.89506739734, 100, 99.93043094598, 93.64211603029, 109.8076903636, 93.6797979364, 94.03159534945, 92.03121412049, 93.27361593867, 91.2713559146, 93.6797979364, -30.7721056905, -31.19197118135, -31.04952788252, -31.51562962286, -30.55480685382, -53.06821895097, -62.69129782036, -53.00164147281, -52.43725821624, -51.24324530506, -53.70853005876, -52.51911165178, -53.00164147281, 45.33810308891, 44.92285395588, 45.25082422903, 45.31231681792, 45.25174673793, 45.31364155622
0.3, -0.2308177026787, 0, 6, 1.995862051093, -0.2803807913654, -0.2805509904182, 0.682575514903, 1.564054423172, -1.292694916515, -1.569895248741, 4.463688103136, 4.461310056357, 4.443304022858, 4.442577425355, -10.46554047497, 99.88626855057, 100, 99.92182322313, 94.2386317871, 110.3799027809, 94.2833390915, 94.62976879049, 92.63243591615, 93.86862731291, 91.86935352731, 94.2833390915, -30.91695664678, -31.29748465112, -31.19466114233, -31.62069777746, -30.70246862633, -53.42222469509, -63.08608125088, -53.34323144157, -52.79213881676, -51.59309007358, -54.06151951943, -52.86703125728, -53.34323144157, 45.31967029749, 44.9043284584, 45.23216052983, 45.29374773032, 45.2333225213, 45.29531716917
0.325, -0.2339395860333, 0, 6, 1.999097893947, -0.2993894696957, -0.2995717978282, 0.6662500578939, 1.553363362097, -1.310280733621, -1.578011118196, 4.835121460044, 4.832537709057, 4.812777479882, 4.811932324816, -9.856701643231, 99.87797422116, 100, 99.91365324587, 94.83447237881, 110.9524742516, 94.88682148802, 95.22717188669, 93.23275498717, 94.46302470076, 92.46660466155, 94.88682148802, -31.05494875313, -31.397019794, -31.3330203097, -31.71991302027, -30.84274205444, -53.77727129853, -63.47993635976, -53.68476901829, -53.14803736179, -51.94419650171, -54.41560707966, -53.21629516776, -53.68476901829, 45.3011793366, 44.88577311085, 45.21353478685, 45.27515236911, 45.21488995951, 45.27689640494
0.35, -0.2346436821773, 0, 6, 2.000519503298, -0.3136221215807, -0.3138133894439, 0.6557151422515, 1.544083581161, -1.324362824827, -1.58558113166, 5.206475076683, 5.203698164653, 5.182275867175, 5.181324052577, -9.260481472416, 99.87024695822, 100, 99.90596613408, 95.42964150914, 111.5255651114, 95.4902532002, 95.82379644029, 93.83214306765, 95.05681805064, 93.06310041137, 95.4902532002, -31.18522785436, -31.49015945676, -31.46377737212, -31.81253302659, -30.97462079864, -54.13336118904, -63.87263221255, -54.02624730839, -53.50494912663, -52.29658894233, -54.77080118922, -53.5669408812, -54.02624730839, 45.28264624271, 44.86721195218, 45.19495857389, 45.25654087127, 45.19647240309, 45.25840938412
0.375, -0.2329103611353, 0, 6, 2.000073620871, -0.3235277800117, -0.3237250011495, 0.6503206352392, 1.53595436736, -1.335144436913, -1.593367850852, 5.577746539233, 5.574790153069, 5.551806333353, 5.55075944155, -8.679063514849, 99.86312735571, 100, 99.89879493003, 96.0241437859, 112.0993031827, 96.09364074333, 96.41964122478, 94.43058390906, 95.65001911081, 93.65883833633, 96.09364074333, -31.30716856527, -31.57633673284, -31.58625601565, -31.89821171382, -31.09724838571, -54.4904909165, -64.26399474859, -54.36766064024, -53.86286273843, -52.65027718896, -55.12710055698, -53.91898815944, -54.36766064024, 45.26409350292, 44.84866853187, 45.17644230731, 45.2379300328, 45.17809181891, 45.23989247391
0.4, -0.2287457091514, 0, 6, 1.997930968898, -0.3297171094628, -0.3299176730394, 0.6492790210646, 1.528555502501, -1.342557772503, -1.601762440887, 5.948934906348, 5.945813228784, 5.921374073263, 5.920243184, -8.11406942873, 99.85663605712, 100, 99.89216935291, 96.61798767897, 112.6737876271, 96.69698458867, 97.01471291381, 95.02807321068, 96.24264213538, 94.25382295365, 96.69698458867, -31.42034858507, -31.65558251485, -31.70014193621, -31.97728157833, -31.21037941022, -54.8486478648, -64.65389824758, -54.70901502118, -54.22175914792, -53.00525612302, -55.48449318217, -54.27243894907, -54.70901502118, 45.24554700217, 44.83016531321, 45.15799469724, 45.2193404867, 45.15976224054, 45.22137733436
0.425, -0.2223346317299, 0, 6, 1.99446352744, -0.3326203606024, -0.3328219881991, 0.6516566561675, 1.521618095866, -1.346409400748, -1.610603069044, 6.320040170497, 6.316767656266, 6.290983153306, 6.289778352343, -7.566624087617, 99.85077175443, 100, 99.88612015107, 97.21118703491, 113.2490935893, 97.3002814728, 97.60902561585, 95.6246181789, 96.83470497064, 94.84806617211, 97.3002814728, -31.52451846564, -31.72780973342, -31.80493288476, -32.04961565856, -31.31370649137, -55.20780808982, -65.04225598652, -55.05031708865, -54.58160994897, -53.36150597731, -55.84295634591, -54.6272780849, -55.05031708865, 45.22703084022, 44.81171893163, 45.1396094793, 45.20079375707, 45.14147824475, 45.20288736897
0.45, -0.2139456322406, 0, 6, 1.990309990039, -0.332446021152, -0.3326467041653, 0.6566014868615, 1.51505973751, -1.346607376688, -1.619293204773, 6.69106319234, 6.687654355343, 6.660636549077, 6.659366845253, -7.037386878193, 99.84551445367, 100, 99.88066196955, 97.80376027966, 113.8252737212, 97.90352737605, 98.20260033653, 96.2202366325, 97.42622927495, 95.44158698434, 97.90352737605, -31.61958735884, -31.79292146426, -31.90061785975, -32.1146222357, -31.40733435408, -55.56793658518, -65.42901637799, -55.39157256653, -54.94237853135, -53.71899352467, -56.2024573213, -54.98347473091, -55.39157256653, 45.20856227992, 44.79333382274, 45.12126813599, 45.18230983368, 45.12322038881, 45.18443982595
0.475, -0.2038465012713, 0, 6, 1.986318111049, -0.3292992062592, -0.3294971926549, 0.6635585956809, 1.508757986291, -1.343057215732, -1.627373793815, 7.06200598629, 7.058474198502, 7.030335784737, 7.02900951632, -6.52654217482, 99.84084982756, 100, 99.87581066519, 98.39572928198, 114.402352158, 98.50671735139, 98.79546436879, 96.8149567828, 98.01723923829, 96.03441085102, 98.50671735139, -31.70564941953, -31.85092079475, -31.98704397131, -32.17223803149, -31.49157384316, -55.92898993918, -65.81417178909, -55.73278664951, -55.30402286385, -54.0776733267, -56.5629547196, -55.34098335099, -55.73278664951, 45.19015036593, 44.77500200159, 45.10294914469, 45.16390421089, 45.10496675615, 45.16604837114
0.5, -0.1922262990195, 0, 6, 1.983334968239, -0.3233149645526, -0.3235087691966, 0.6725545277723, 1.502307919757, -1.335950818952, -1.634278825441, 7.432872497088, 7.429228032421, 7.400080643863, 7.398705382946, -6.03359536549, 99.83673567801, 100, 99.87155805616, 98.98711907629, 114.9803159139, 99.10984676747, 99.38765158504, 97.4088172782, 98.60776003206, 96.62656887631, 99.10984676747, -31.78302612851, -31.90332888561, -32.06429828193, -32.22325564645, -31.56693371916, -56.29091973513, -66.19777170097, -56.07396470619, -55.66649850849, -54.4374884603, -56.92440022777, -55.69974391702, -56.07396470619, 45.17179543579, 44.75670679212, 45.08463148767, 45.14557830082, 45.08669722538, 45.14771551317
0.525, -0.1797474621483, 0, 6, 1.981908297802, -0.3147358110075, -0.314924201488, 0.6828559565757, 1.495705803867, -1.325585849592, -1.639242571999, 7.80366764024, 7.799919849489, 7.769869586518, 7.76845145493, -5.557216655198, 99.83311723645, 100, 99.8678778999, 99.57795798229, 115.5591061495, 99.71291291274, 99.97919943559, 98.00186713088, 99.19781711163, 97.21809687329, 99.71291291274, -31.85230298722, -31.94934693311, -32.13300525168, -32.26759556421, -31.63423249088, -56.65367609491, -66.57993561105, -56.41511318634, -56.02975952436, -54.79837180114, -57.28674123142, -56.05968254251, -56.41511318634, 45.15348741798, 44.73842712967, 45.06629510037, 45.12731243258, 45.068393758, 45.12942606692
0.55, -0.1668310752353, 0, 6, 1.982182977798, -0.3040199195642, -0.3042019462129, 0.6941096993909, 1.488981293719, -1.312518650168, -1.641944073851, 8.174397881278, 8.170555147722, 8.1396999137, 8.138243968878, -5.095718846395, 99.82994629264, 100, 99.86473684474, 100.1682775361, 116.1386432405, 100.3159127263, 100.5701490555, 98.59416118195, 99.78743647575, 97.80903400883, 100.3159127263, -31.91418108647, -31.98928516364, -32.19362334329, -32.30579027932, -31.69433159829, -57.01720915991, -66.96081232136, -56.75623621646, -56.3937591952, -55.16025118332, -57.64992189502, -56.42071842316, -56.75623621646, 45.13520636286, 44.72014017604, 45.04791969125, 45.10907406985, 45.050040769, 45.11115549308
0.575, -0.1539223005564, 0, 6, 1.984017574694, -0.2918010140305, -0.2919760484084, 0.7058372523973, 1.482267702798, -1.297598336725, -1.642580890672, 8.54507002939, 8.541140067945, 8.509568778879, 8.508079212969, -4.647390631775, 99.8271801617, 100, 99.86209034654, 100.7581115964, 116.7188445429, 100.918853188, 101.160543341, 99.18575671402, 100.3766457913, 98.39942155827, 100.918853188, -31.96937510108, -32.02374707542, -32.24698962638, -32.33815507847, -31.74802329322, -57.38146899491, -67.34055169572, -57.09732226002, -56.75844955643, -55.52305293702, -58.01388453707, -56.78276858949, -57.09732226002, 45.11692595199, 44.70182248396, 45.02948728527, 45.09082872228, 45.03162627577, 45.09287812721
0.6, -0.1413452744951, 0, 6, 1.987072587779, -0.2787772079399, -0.278944945607, 0.717856720046, 1.475705582535, -1.281944468424, -1.641721504791, 8.915690556488, 8.911680824106, 8.879473383949, 8.877953829177, -4.210659340387, 99.82478781118, 100, 99.85987981345, 101.3474953743, 117.2996332699, 101.5217460741, 101.7504253437, 99.77671080308, 100.965474193, 98.98930140523, 101.5217460741, -32.01855982016, -32.05291089306, -32.29384331169, -32.36530155438, -31.79586850474, -57.74640600356, -67.71929098309, -57.43837672803, -57.12378249973, -55.88670445361, -58.37857095966, -57.14575126975, -57.43837672803, 45.09861936295, 44.68345408247, 45.01099685991, 45.07254646143, 45.01315257592, 45.07457146532
0.625, -0.1292296050411, 0, 6, 1.990769952298, -0.2655739751767, -0.2657343639746, 0.7302825170278, 1.469410897681, -1.26661500912, -1.640036977892, 9.286265622361, 9.282183322049, 9.249411350639, 9.247864902741, -3.784165567819, 99.82275116932, 100, 99.85805164903, 101.9364654994, 117.8809428083, 102.1245967743, 102.3398377676, 100.3670786063, 101.5539520062, 99.5787149197, 102.1245967743, -32.06234318172, -32.07721929435, -32.33499862308, -32.38763719834, -31.83852878717, -58.11197160323, -68.09714868505, -57.77940718243, -57.48971051624, -56.25113580566, -58.74392401508, -57.50958803414, -57.77940718243, 45.08026577348, 44.66502578859, 44.99246435325, 45.05420414701, 44.99463724079, 45.05621658268
0.65, -0.1176539724653, 0, 6, 1.994331184772, -0.25264586559, -0.2527989932362, 0.7431884973179, 1.463574787291, -1.252335575733, -1.638087758368, 9.656800624616, 9.652652849617, 9.619380586875, 9.617810075782, -3.366843264548, 99.82105372095, 100, 99.85655769081, 102.5250600128, 118.4627212502, 102.7274120805, 102.9288221142, 100.9569121993, 102.1421098823, 100.1677024066, 102.7274120805, -32.10124075196, -32.09696052351, -32.3711491692, -32.4058098653, -31.87631618377, -58.47811791201, -68.47421791782, -58.12042197629, -57.85618578713, -56.61628046557, -59.10988793729, -57.87420502693, -58.12042197629, 45.06185314676, 44.64654122234, 44.97391081622, 45.03578549549, 44.9761015624, 45.03779798503
0.675, -0.1067073178407, 0, 6, 1.996943924469, -0.2402417774019, -0.2403877688538, 0.7565716374194, 1.458711112719, -1.239472177031, -1.636404679412, 10.02730009353, 10.02309392766, 9.989379610702, 9.987787648846, -2.957982268417, 99.81967561456, 100, 99.85534279464, 103.113317365, 119.0449349155, 103.3301990981, 103.5174183417, 101.5462599223, 102.7299789866, 100.7563028838, 103.3301990981, -32.13565635078, -32.11263644061, -32.40291468423, -32.42004112541, -31.90958409173, -58.84479702477, -68.85056122055, -58.46142963893, -58.22316005748, -56.98207595768, -59.47640864549, -58.23953386331, -58.46142963893, 45.04337865079, 44.62801387962, 44.95535779646, 45.01728783486, 44.9575656543, 45.01931012045
0.7, -0.0963715881495, 0, 6, 1.998045432757, -0.2284228873204, -0.2285618497791, 0.7703919761245, 1.45528101972, -1.228084592823, -1.635566008495, 10.39776732992, 10.39351014519, 10.35940721861, 10.35779646304, -2.557250824919, 99.81860563742, 100, 99.85436434624, 103.7012744697, 119.6275697436, 103.9329634714, 104.1056640445, 102.135165837, 103.3175903035, 101.34455377, 103.9329634714, -32.16587472265, -32.12452474187, -32.4308262147, -32.43088320232, -31.93846030407, -59.21196030228, -69.22620875509, -58.8024378724, -58.59058468645, -57.34846423396, -59.84343357857, -58.60551218573, -58.8024378724, 45.02485015615, 44.60946293626, 44.93682610373, 44.99872878979, 44.93904787435, 45.00076555501
0.725, -0.08654567045427, 0, 6, 1.99746136614, -0.2171235264514, -0.2172555375556, 0.7846026810636, 1.453472455384, -1.217802331765, -1.635931902384, 10.76820478252, 10.7639040139, 10.72946233056, 10.72783476291, -2.164593116052, 99.81784001173, 100, 99.85359924185, 104.2889654562, 120.2106260175, 104.535709322, 104.69359477, 102.7236698658, 103.9049740162, 101.9324904523, 104.535709322, -32.19209186203, -32.13332626879, -32.45524265268, -32.43936593564, -31.96298755145, -59.57955863133, -69.60116709464, -59.14345363749, -58.95841167077, -57.71539087241, -60.21091184726, -58.97208269243, -59.14345363749, 45.00628609956, 44.59091032735, 44.91833544564, 44.98013831489, 44.92056535375, 44.98218956165
0.75, -0.077413709598, 0, 6, 1.995310869045, -0.2062183710295, -0.2063434817758, 0.7991125585158, 1.453199496063, -1.208518440158, -1.636847833056, 11.13861419006, 11.13427724192, 11.09954439128, 11.09789621346, -1.780061490477, 99.81737895858, 100, 99.85304312433, 104.8764217616, 120.7941095891, 105.1384364165, 105.2812439503, 103.3118088849, 104.4921595733, 102.5201462245, 105.1384364165, -32.21446410245, -32.13945046782, -32.47638965745, -32.44576435616, -31.98331648295, -59.94754369963, -69.97543353525, -59.48448471708, -59.32659441738, -58.08280419981, -60.57879505362, -59.3391916216, -59.48448471708, 44.9877122952, 44.57237946853, 44.89990353588, 44.96154876067, 44.90213401391, 44.96361098804
0.775, -0.06850306342274, 0, 6, 1.9918928269, -0.1956188214815, -0.1957370950662, 0.8136425228308, 1.45413156987, -1.199880213071, -1.639140610851, 11.50899641128, 11.50463028947, 11.46965278366, 11.4679882451, -1.40372762535, 99.81709395118, 100, 99.85259062538, 105.4636715647, 121.3780278404, 105.7411398434, 105.8686420918, 103.8996164572, 105.0791741778, 103.1075517063, 105.7411398434, -32.23312606083, -32.14299711104, -32.49420972355, -32.44973687541, -31.99961030769, -60.31586939082, -70.34900164433, -59.82552456359, -59.69508797844, -58.45065544698, -60.94703777411, -59.70678857273, -59.82552456359, 44.96915652727, 44.55389213621, 44.88153433454, 44.94298821693, 44.88375858074, 44.94505641835
0.8, -0.05987166873229, 0, 6, 1.987726324213, -0.185196738887, -0.1853082429289, 0.8276555175159, 1.456026256772, -1.191164575268, -1.64200107017, 11.87934999106, 11.87496452744, 11.83978636441, 11.83811533965, -1.035376364787, 99.8170590934, 100, 99.85235260103, 106.0507403959, 121.96237917, 106.3438226485, 106.455818103, 104.4871257766, 105.6660423049, 103.694736137, 106.3438226485, -32.24825396165, -32.14378507764, -32.508861202, -32.45097426993, -32.0121973113, -60.68449078405, -70.72187836505, -60.16656587602, -60.0638491561, -58.81889672037, -61.31559645091, -60.07482351291, -60.16656587602, 44.95064175313, 44.53546085516, 44.86321406493, 44.92447976654, 44.86542463975, 44.92654601971
0.825, -0.05163966105567, 0, 6, 1.983542870543, -0.1747985137749, -0.1749033144147, 0.8405904263029, 1.458704324788, -1.181733225726, -1.644674428826, 12.24967455396, 12.24528108195, 12.20994382678, 12.2082704648, -0.6747983643694, 99.81718121743, 100, 99.85226886865, 106.6376511618, 122.5471511699, 106.9464865301, 107.0427998405, 105.0743702824, 106.2527864477, 104.2817278296, 106.9464865301, -32.2600765742, -32.14158968208, -32.52030893592, -32.4492618467, -32.02143459962, -61.05336450486, -71.09408753043, -60.50760059223, -60.43283779003, -59.18748115214, -61.68442947887, -60.44324667729, -60.50760059223, 44.9321823255, 44.51708527633, 44.84492271413, 44.90604223249, 44.84710993565, 44.90809587297
0.85, -0.04365019900668, 0, 6, 1.980163113973, -0.1643136220941, -0.1644118008719, 0.8528295122368, 1.461639737002, -1.171296163653, -1.64662392139, 12.61998221273, 12.615580888, 12.58012327694, 12.57845037973, -0.3217433104471, 99.81744449825, 100, 99.85235848268, 107.2244243345, 123.1323259154, 107.5491320219, 107.6296142763, 105.6613820603, 106.8394273373, 104.8685534704, 107.5491320219, -32.26884083831, -32.13716135803, -32.52872304875, -32.44497153819, -32.02770572858, -61.4224488065, -71.46566022245, -60.84861999241, -60.80201650113, -59.5563630315, -62.05349657617, -60.81200931166, -60.84861999241, 44.91378358123, 44.49875424364, 44.82664007521, 44.8876836182, 44.82879276344, 44.88971411045
0.875, -0.0360703284958, 0, 6, 1.97822129127, -0.1536922892745, -0.1537839415749, 0.8640346984648, 1.464290014751, -1.159764502646, -1.647221680242, 12.99027034859, 12.98586491001, 12.95032351788, 12.9486529407, 0.02395640242182, 99.8178297982, 100, 99.8526359742, 107.8110808172, 123.7178898007, 108.1517608405, 108.2162872443, 106.2481915671, 107.4259864807, 105.4552386937, 108.1517608405, -32.27476567306, -32.13016314311, -32.53417609811, -32.43795348657, -32.03142963505, -61.79170397623, -71.83662046891, -61.18961602821, -61.17134899185, -59.92549827953, -62.42275893524, -61.18106478377, -61.18961602821, 44.89544053959, 44.48045002973, 44.8083464943, 44.86939219642, 44.81045299815, 44.87139045614
0.9, -0.02891398731825, 0, 6, 1.977973341967, -0.1429705307318, -0.1430557678484, 0.8742567775669, 1.466292586759, -1.147217324412, -1.646068945592, 13.3605395798, 13.35613422144, 13.32054355173, 13.31887642374, 0.3624287938564, 99.81829975536, 100, 99.85308539317, 108.3976421391, 124.303830981, 108.7543766713, 108.8028438766, 106.8348276062, 108.0124846947, 106.0418078125, 108.7543766713, -32.27805144452, -32.12089411018, -32.53654098969, -32.4284047701, -32.03297726649, -62.16109381411, -72.20698875147, -61.53058176731, -61.54080125514, -60.29484529289, -62.79217964255, -61.55036905688, -61.53058176731, 44.87713730891, 44.46215159982, 44.7900225533, 44.85114143649, 44.79207228677, 44.8530998911
0.925, -0.02219887741147, 0, 6, 1.979352424816, -0.1322182287936, -0.1322971655201, 0.883582760685, 1.467567431321, -1.133828879846, -1.643122621582, 13.73079152254, 13.72639004339, 13.69078274989, 13.68911963135, 0.6937145240454, 99.81883373869, 100, 99.85369391155, 108.9841304254, 124.890142009, 109.3569953677, 109.3893080479, 107.421317331, 108.5989424401, 106.6282841955, 109.3569953677, -32.27886587133, -32.10946673133, -32.53609009383, -32.41646069968, -32.03260017517, -62.53058503422, -72.57677800776, -61.87152374045, -61.91034097365, -60.66436544283, -63.16172374013, -61.91988125818, -61.87152374045, 44.85884966313, 44.4438360723, 44.77165042744, 44.83290031091, 44.77363292725, 44.83481222712
0.95, -0.01591726231821, 0, 6, 1.982107950697, -0.1214745779971, -0.1215473027092, 0.8923694947161, 1.468309280212, -1.119940733367, -1.63861399008, 14.10102774436, 14.09663361817, 14.0610408851, 14.05938189724, 1.017734500315, 99.81941929486, 100, 99.85443287487, 109.5705678626, 125.4768214237, 109.9596161101, 109.9757023855, 108.0076860301, 109.1853801807, 107.2146902605, 109.9596161101, -32.27733584855, -32.09581544984, -32.53291296774, -32.40217494259, -32.03036807271, -62.90014635092, -72.94599129601, -62.21244936181, -62.27993762635, -61.03402315679, -63.53135806352, -62.28956388859, -62.21244936181, 44.84054987263, 44.42548075451, 44.75322270071, 44.81464100042, 44.75512490705, 44.81649899407
0.975, -0.01001896201393, 0, 6, 1.985790766163, -0.1107175137361, -0.1107840450344, 0.9013000050416, 1.468866921161, -1.106096821729, -1.632882743013, 14.47124971139, 14.46686603102, 14.43131807484, 14.42966294895, 1.334218523504, 99.82005724459, 100, 99.85526845573, 110.1569769891, 126.0638737798, 110.5622413722, 110.56204859, 108.593957035, 109.7718186965, 107.8010473901, 110.5622413722, -32.27354797486, -32.07991747564, -32.52724250666, -32.38571735021, -32.02617784939, -63.2697483683, -73.31462191667, -62.55336456038, -62.64956264533, -61.40378567833, -63.90105113403, -62.65938269009, -62.55336456038, 44.82221348359, 44.40707021908, 44.73475143753, 44.79634137212, 44.73655804937, 44.79813618716
1, -0.004431568936769, 0, 6, 1.989720945217, -0.09988687269679, -0.09994713368101, 0.9109977696568, 1.469612389088, -1.092738615289, -1.626291690454, 14.84145862008, 14.83708810834, 14.80161478421, 14.79996280478, 1.643076239232, 99.82075119827, 100, 99.85617168063, 110.7433810607, 126.6513095412, 111.1648755811, 111.1483673909, 109.1801517689, 110.3582786222, 108.3873759555, 111.1648755811, -32.26755025899, -32.06171511787, -32.51925735601, -32.36704537235, -32.02011566263, -63.63936368106, -73.68265371626, -62.89427634709, -63.01918839495, -61.77362267814, -64.27077328903, -63.02930636031, -62.89427634709, 44.80382399727, 44.38860163005, 44.71625738069, 44.77798408735, 44.71795192326, 44.77970449967
1.025, 0.0009390950805632, 0, 6, 1.993083681111, -0.08888590900425, -0.0889397146803, 0.9218771026203, 1.47104700188, -1.080019962752, -1.6192332698, 15.21165513754, 15.20730035275, 15.1719316994, 15.17028169305, 1.94421782072, 99.82149543681, 100, 99.85710459312, 111.3298037052, 127.2391452442, 111.7675239897, 111.7346783385, 109.7662899459, 110.9447801186, 108.9736954529, 111.7675239897, -32.25935222902, -32.04079799077, -32.50910956948, -32.34589610055, -32.01189004112, -64.00896614751, -74.05006076261, -63.23519219977, -63.38878725507, -62.14350585416, -64.64049629047, -63.39930613688, -63.23519219977, 44.78537363163, 44.37008357703, 44.69776193904, 44.75955919972, 44.69932677997, 44.76119096297
1.05, 0.006155248057676, 0, 6, 1.99517517291, -0.07756837491444, -0.07761542833951, 0.9341562883749, 1.473831009059, -1.067892749386, -1.612234583812, 15.58183957444, 15.57750286441, 15.54226938673, 15.54062002596, 2.237421710974, 99.82228259095, 100, 99.85802484171, 111.9162677303, 127.8274043449, 112.3701911084, 112.3210002273, 110.3523898852, 111.5313426874, 109.560024955, 112.3701911084, -32.24892172553, -32.01724416374, -32.49697711467, -32.32231202256, -32.00134450441, -64.37852934292, -74.41680590068, -63.57611917672, -63.75833133233, -62.51340860909, -65.01019239915, -63.76935547555, -63.57611917672, 44.76686428601, 44.35153209934, 44.67928540947, 44.74107465582, 44.68070166854, 44.74259974451
1.075, 0.01125448974765, 0, 6, 1.995648708725, -0.0657804448474, -0.06582036659195, 0.9479077088785, 1.478465044305, -1.056214539001, -1.605710721817, 15.95201167789, 15.94769543145, 15.9126282104, 15.91097840683, 2.522371725855, 99.82311278219, 100, 99.8589073794, 112.5027936181, 128.4161152327, 112.9728792165, 112.9073508197, 110.9384685447, 112.1179851707, 110.1463829141, 112.9728792165, -32.23619705704, -31.99116626577, -32.4829890974, -32.29645806396, -31.9882673171, -64.74802575153, -74.78284389119, -63.91706307484, -64.12779231506, -62.88330529269, -65.37983408049, -64.13942929858, -63.91706307484, 44.74830882414, 44.33296702621, 44.66084656788, 44.722554592, 44.66209449238, 44.72395252726
1.1, 0.01626652801465, 0, 6, 1.994509831545, -0.05340314359543, -0.05343551662801, 0.9631018676593, 1.485103059791, -1.044809374526, -1.599772898851, 16.32217084601, 16.31787821296, 16.28300834287, 16.28135799569, 2.798731403057, 99.82400602212, 100, 99.85975948006, 113.0893994061, 129.0053073329, 113.5755801877, 113.4937470815, 111.5245418151, 112.7047257416, 110.7327868892, 113.5755801877, -32.22110901913, -31.96268723718, -32.46718480901, -32.26845630556, -31.97234173926, -65.11742726028, -75.14812774759, -64.25802077714, -64.49714201004, -63.2531705808, -65.74939418659, -64.50950315126, -64.25802077714, 44.72972926979, 44.31441027091, 44.64246295877, 44.70402935597, 44.64352289172, 44.70527870628
1.125, 0.021198558039, 0, 6, 1.991969863324, -0.04037600663736, -0.04040042027402, 0.9794686423182, 1.493587054601, -1.033405869856, -1.59428190004, 16.692316415, 16.6880515151, 16.65340977987, 16.65175998199, 3.066207774897, 99.82498795248, 100, 99.86061580114, 113.6761014723, 129.5950077816, 114.1782982698, 114.0802054433, 112.1106251067, 113.2915816583, 111.3192536804, 114.1782982698, -32.20359956166, -31.93194124657, -32.44938908547, -32.2383989356, -31.95366103566, -65.48670608036, -75.51261418173, -64.59898858924, -64.86635258784, -63.62297923883, -66.11884622434, -64.87955267014, -64.59898858924, 44.71115254383, 44.29588451107, 44.62414514848, 44.68552745564, 44.62499986778, 44.68660715421
1.15, 0.02604387695178, 0, 6, 1.988425470542, -0.026706748015, -0.02672283899191, 0.9963939293612, 1.503546531341, -1.021478081607, -1.58894917261, 17.06244782182, 17.05821560679, 17.02383223642, 17.02218519455, 3.324425233066, 99.82606869027, 100, 99.86151984495, 114.2629144789, 130.1852389416, 114.7810361695, 114.6667417517, 112.6967338257, 113.8785685269, 111.9057995067, 114.7810361695, -32.18363502228, -31.89913932729, -32.42956003172, -32.20629914725, -31.93224220581, -65.85583503636, -75.87626747461, -64.93996761245, -65.235396532, -63.99270608249, -66.48816454546, -65.24955328795, -64.93996761245, 44.6926038853, 44.27740701947, 44.60588469291, 44.66707207247, 44.60651932443, 44.66796244331
1.175, 0.03080156741363, 0, 6, 1.984511623853, -0.01243520993422, -0.01244267274278, 1.013273011183, 1.51457723109, -1.008485210653, -1.583449817718, 17.43256468457, 17.42837078119, 17.39427497996, 17.39263404779, 3.572888781284, 99.82724779286, 100, 99.86250634192, 114.8498509408, 130.7760170125, 115.3837918354, 115.2533712546, 113.2828836128, 114.4657006719, 112.4924400829, 115.3837918354, -32.16121289305, -31.86439092797, -32.40741805523, -32.17215008198, -31.90820699268, -66.22478721987, -76.23906148716, -65.28095668632, -65.60424736879, -64.36232598676, -66.85732418659, -65.6194800694, -65.28095668632, 44.67410119358, 44.25898294063, 44.58766173908, 44.64868149006, 44.58806201829, 44.64936421579
1.2, 0.03545740814506, 0, 6, 1.981032500859, 0.00239319132384, 0.002394622528492, 1.029733223852, 1.526227608552, -0.9941182920379, -1.577398812806, 17.802666929, 17.79851740086, 17.76473618243, 17.76310658696, 3.811296419024, 99.82853015115, 100, 99.8636123621, 115.4369216654, 131.3673520152, 115.9865620793, 115.8401088198, 113.8690904047, 115.0529918093, 113.0791907207, 115.9865620793, -32.13636177728, -31.82772160812, -32.38299586719, -32.13594616956, -31.88170951161, -66.59353608732, -76.60097968727, -65.62195400719, -65.9728802149, -64.73181391259, -67.22630077699, -65.98930774273, -65.62195400719, 44.65565362237, 44.24060527202, 44.5694544784, 44.63036818743, 44.56960646709, 44.6308266059
1.225, 0.03989975856449, 0, 6, 1.978746600444, 0.01770757514957, 0.01771814040715, 1.045610805641, 1.537894953338, -0.9784812913686, -1.570232780116, 18.17275498265, 18.16865591205, 18.13521168931, 18.13360252239, 4.039453493532, 99.82991598437, 100, 99.86487399628, 116.0241369687, 131.9592481988, 116.5893439521, 116.4269692476, 114.4553701519, 115.6404552781, 113.6660660394, 116.5893439521, -32.10913911876, -31.78932264592, -32.35611640977, -32.09767068012, -31.8529967467, -66.96205652241, -76.96201460345, -65.96295790673, -66.34127211405, -65.10114494869, -67.59507085972, -66.3590108562, -65.96295790673, 44.63726096981, 44.22225857183, 44.55124152027, 44.61212894076, 44.55113242934, 44.61234871271
1.25, 0.04422194439211, 0, 6, 1.978087969143, 0.03340115004655, 0.03342106563522, 1.060839674285, 1.549025292974, -0.9614633145823, -1.561492741887, 18.54282971381, 18.53878698186, 18.50570656529, 18.50412119268, 4.257323847665, 99.83134395228, 100, 99.86625714652, 116.6115076412, 132.5517010932, 117.1921361522, 117.0139667929, 115.0417388751, 116.2281032159, 114.2530797079, 117.1921361522, -32.0796445185, -31.74922823304, -32.326679631, -32.05757124665, -31.82237935143, -67.33032641384, -77.32217204912, -66.3039676486, -66.70940251611, -65.47029466187, -67.96361237086, -66.72856383707, -66.3039676486, 44.61891209224, 44.2039229753, 44.53300279158, 44.59394216084, 44.53262146227, 44.59391096085
1.275, 0.04848325979609, 0, 6, 1.979110762382, 0.04940342695266, 0.04943291446139, 1.075443034305, 1.559321438366, -0.9430755132967, -1.551013181442, 18.91289235513, 18.90891144225, 18.87622672125, 18.87466205635, 4.464849035988, 99.83284985434, 100, 99.86781159454, 117.1990464912, 133.1447072632, 117.7949395654, 117.6011158837, 115.6282124329, 116.815948141, 114.840245485, 117.7949395654, -32.04796765881, -31.7077299714, -32.29465607385, -32.01579578367, -31.79011260463, -67.69832518751, -77.68145586964, -66.6449837339, -67.0772516566, -65.83923956755, -68.33190385785, -67.09794203575, -66.6449837339, 44.60058610058, 44.18557650635, 44.51471988147, 44.57577737086, 44.51405541066, 44.57548380489
1.3, 0.05262382564813, 0, 6, 1.981626638942, 0.06570879087671, 0.06574811043023, 1.089671985304, 1.568886851893, -0.9236884444463, -1.538899908369, 19.28294409983, 19.27903026372, 19.24676891795, 19.24522513667, 4.661883496269, 99.83443176933, 100, 99.86953104778, 117.7867680581, 133.7382679963, 118.3977566286, 118.1884309242, 116.2148065595, 117.4040034954, 115.4275776556, 118.3977566286, -32.0141727263, -31.66472939325, -32.26005213991, -31.97240946446, -31.75617332126, -68.06603282924, -78.03986258031, -66.98600754128, -67.44479987081, -66.20795733534, -68.69992414253, -67.46712209118, -66.98600754128, 44.58225622276, 44.16719617985, 44.49637903713, 44.55760469168, 44.49541956172, 44.55703667261
1.325, 0.05667877272131, 0, 6, 1.985273675531, 0.08235092312301, 0.08240038283518, 1.104117030223, 1.578037069656, -0.903764427441, -1.525444354435, 19.65298636028, 19.64914450784, 19.61733196494, 19.6158105873, 4.848380482081, 99.83608563303, 100, 99.87138189352, 118.3746874825, 134.3323835681, 119.0005906665, 118.7759263504, 116.8015369585, 117.992283136, 116.0150905428, 119.0005906665, -31.97832677858, -31.6202940946, -32.22309821396, -31.92747262569, -31.72057682919, -68.43343033281, -78.39739007771, -67.32704095149, -67.81202899247, -66.57642646008, -69.06765259385, -67.83608129886, -67.32704095149, 44.56389592576, 44.14876273874, 44.47798400906, 44.53939905385, 44.47671612346, 44.53854353375
1.35, 0.06066302160338, 0, 6, 1.989462551944, 0.0993727934751, 0.0994327287409, 1.119404459517, 1.587167195028, -0.8838661337322, -1.51101488478, 20.0230205983, 20.01925522607, 19.98791586888, 19.98641859709, 5.024471534045, 99.83781940704, 100, 99.87333728199, 118.9628209835, 134.9270539126, 119.6034463479, 119.3636166053, 117.3884192216, 118.5808010277, 116.6027984616, 119.6034463479, -31.94049698825, -31.57446731066, -32.18396785578, -31.88118143226, -31.68319656952, -68.80049992247, -78.7540367431, -67.6680866058, -68.17892159006, -66.94462602405, -69.4350691265, -68.20479751786, -67.6680866058, 44.54548512702, 44.130267946, 44.45955267905, 44.52114044551, 44.45796267477, 44.51998398658
1.375, 0.06457901903504, 0, 6, 1.993416183451, 0.1167936706977, 0.1168643935393, 1.135915475861, 1.596650468897, -0.8643878263179, -1.496005161384, 20.39304820017, 20.38936344309, 20.35852086658, 20.35704935092, 5.190162021935, 99.83963770723, 100, 99.87537090895, 119.5511856194, 135.5222783595, 120.2063295148, 119.9515159555, 117.975468809, 119.1695706055, 117.1907156029, 120.2063295148, -31.90075260177, -31.52726817661, -32.14285324745, -31.83370936677, -31.6441062732, -69.16722507678, -79.10980192364, -68.00914780916, -68.54546027922, -67.312535521, -69.80215433076, -68.57324902801, -68.00914780916, 44.52701237735, 44.11171596978, 44.44110571182, 44.50281360031, 44.43918060301, 44.50134315257
1.4, 0.06845079656226, 0, 6, 1.996342909746, 0.1346135603934, 0.1346953135199, 1.153781632139, 1.606990370572, -0.8455218988199, -1.481024665615, 20.76307036988, 20.75947016902, 20.72914712956, 20.72770297496, 5.345480143942, 99.84154014799, 100, 99.87744683049, 120.1397981715, 136.1180546001, 120.8092460592, 120.5396381994, 118.5627013177, 119.7586044634, 117.7788561332, 120.8092460592, -31.85917068431, -31.47862688486, -32.10000866005, -31.78506529096, -31.60314795239, -69.53358987974, -79.46468755297, -68.35022789468, -68.9116276299, -67.68013487387, -70.16888936491, -68.9414143716, -68.35022789468, 44.50847526991, 44.09312031187, 44.42266309471, 44.484416328, 44.42039099815, 44.48261840938
1.425, 0.07226070238835, 0, 6, 1.997720972159, 0.1528272614435, 0.1529202043607, 1.172990478582, 1.618732475997, -0.8273111828665, -1.466621114291, 21.13308823377, 21.12957638474, 21.09979439583, 21.09837937788, 5.490526077977, 99.84353156036, 100, 99.87953925856, 120.7286734052, 136.7143765078, 121.4122001684, 121.1279966714, 119.1501326637, 120.347913847, 118.3672341439, 121.4122001684, -31.81584828939, -31.42875762252, -32.0557499913, -31.73539311985, -31.56023507603, -69.8995780019, -79.81870167499, -68.69132923129, -69.27740650044, -68.04740409767, -70.53525563513, -69.30927191772, -68.69132923129, 44.48988211778, 44.07449977, 44.40424372909, 44.4659654028, 44.40161387424, 44.46382621595
1.45, 0.07594124210605, 0, 6, 1.997410484172, 0.1714064763319, 0.1715106859694, 1.193418029138, 1.63217053778, -0.8097325244728, -1.453123735014, 21.50310262585, 21.49968289949, 21.47046201737, 21.4690779609, 5.625463020891, 99.84561144337, 100, 99.8816289337, 121.3178233413, 137.3112346572, 122.0151821061, 121.7166038156, 119.7377784634, 120.9375088534, 118.9558630434, 122.0151821061, -31.77089900084, -31.37761569793, -32.01033455224, -31.6847212611, -31.51526651773, -70.26517245322, -80.17185770769, -69.03244522591, -69.64277996176, -68.41432306397, -70.90123488242, -69.67679982158, -69.03244522591, 44.47125159682, 44.05587583183, 44.38586540598, 44.44748845272, 44.38286824937, 44.44499537585
1.475, 0.07946000202553, 0, 6, 1.995542323964, 0.1902816718858, 0.1903971407099, 1.21467014899, 1.647252756302, -0.7927238062002, -1.440460836856, 21.87311412645, 21.86979020563, 21.84114913612, 21.83979772827, 5.750458387518, 99.84777366037, 100, 99.88370653667, 121.9072578313, 137.9086193948, 122.6181908235, 122.3054711593, 120.3256532812, 121.527398747, 119.5447551172, 122.6181908235, -31.72443535724, -31.32500256855, -31.96391026736, -31.63299924187, -31.46831609609, -70.63035608219, -80.52416942464, -69.37355845366, -70.00773128381, -68.78087185931, -71.26680935029, -70.04397661498, -69.37355845366, 44.45260947189, 44.0372716335, 44.36754349289, 44.42901464054, 44.36417229172, 44.42615733171
1.5, 0.08274283601751, 0, 6, 1.992420050833, 0.2093360453331, 0.2094626796378, 1.236257705775, 1.663657812227, -0.776010681044, -1.428417891361, 22.24312338949, 22.2398986388, 22.21185457026, 22.21053749929, 5.8657208791, 99.85000507249, 100, 99.8857849858, 122.4969849287, 138.5065195543, 123.2212629921, 122.8946095847, 120.9137707781, 122.1175910117, 120.1339214862, 123.2212629921, -31.6765754045, -31.27136567276, -31.91647446969, -31.58040017123, -31.41962668545, -70.99511230348, -80.87565301746, -69.71469343134, -70.37224412572, -69.14703103858, -71.63196211687, -70.41078130947, -69.71469343134, 44.43398302372, 44.01870835646, 44.34927805432, 44.4105692232, 44.34552937456, 44.40733991151
1.525, 0.08576326433593, 0, 6, 1.9885883609, 0.2284381428686, 0.2285758015111, 1.257451035437, 1.68093545741, -0.7590693173501, -1.416703872247, 22.61313088217, 22.61000853935, 22.58257696195, 22.58129587245, 5.971558754127, 99.85228157625, 100, 99.88787704762, 123.0870101854, 139.1049206259, 123.824391724, 123.4840286322, 121.5021438031, 122.7080913087, 120.7233720497, 123.824391724, -31.62745116576, -31.21695926131, -31.86807385087, -31.52687876941, -31.36946946298, -71.35942508661, -81.22632995072, -70.05585875879, -70.73630297639, -69.51278193407, -71.99667751797, -70.77719353504, -70.05585875879, 44.41539410823, 44.00019691088, 44.33105229917, 44.39217249154, 44.32692382838, 44.38856593666
1.55, 0.08851259876519, 0, 6, 1.984814773058, 0.2474727955232, 0.2476213590088, 1.277741921235, 1.698668759204, -0.7415163512111, -1.4050089172, 22.98313709814, 22.98012027513, 22.95331478135, 22.95207129383, 6.068250831888, 99.85458096129, 100, 99.88999202264, 123.6773367211, 139.70380543, 124.4275684562, 124.0737366749, 122.0907843172, 123.2989041371, 121.3131155454, 124.4275684562, -31.57720400957, -31.16191007734, -31.81869873726, -31.472599081, -31.31809136699, -71.72327889992, -81.57622584454, -70.39706209521, -71.09989401192, -69.87810694894, -72.36094095446, -71.14319385489, -70.39706209521, 44.39685607684, 43.98173522353, 44.31284473938, 44.37384047693, 44.30833484231, 44.36985352787
1.575, 0.09095127577408, 0, 6, 1.981938180275, 0.2663322877724, 0.2664917098536, 1.296867787007, 1.716312332282, -0.7232145396247, -1.392784485637, 23.3531426857, 23.35023420958, 23.32406663576, 23.32286219214, 6.156063410181, 99.85689083461, 100, 99.89215281251, 124.267966274, 140.3031568695, 125.0307839418, 124.663741266, 122.6797029839, 123.8900336537, 121.9031594586, 125.0307839418, -31.52596955259, -31.10646412489, -31.76841212419, -31.41767593204, -31.26579374531, -72.08665917364, -81.92536615144, -70.73831071919, -71.46300519134, -70.242989731, -72.72473900692, -71.50876421385, -70.73831071919, 44.3783735762, 43.96331108003, 44.29463406066, 44.35557903848, 44.2897421282, 44.35121078509
1.6, 0.09308635648418, 0, 6, 1.980562861042, 0.2849155374759, 0.2850858466308, 1.314720662819, 1.733209512737, -0.7042037051132, -1.379485760417, 23.72314829318, 23.72035062946, 23.69483157029, 23.6936671724, 6.235186454423, 99.8591939286, 100, 99.89437463095, 124.8589012167, 140.902961839, 125.6340301785, 125.2540491331, 123.2689086238, 124.4814842636, 122.4935098713, 125.6340301785, -31.47385582584, -31.05061929714, -31.71696544295, -31.36213145467, -31.2129161073, -72.44955324364, -82.27376981361, -71.079612619, -71.82562580978, -70.60741554802, -73.08805962307, -71.87388859896, -71.079612619, 44.35994081121, 43.94490653704, 44.27640008689, 44.33737433503, 44.27112696449, 44.33262495495
1.625, 0.09496826542233, 0, 6, 1.980884770751, 0.3031482751719, 0.3033295421395, 1.331315584388, 1.748878156983, -0.6846015671853, -1.364883847432, 24.09315471207, 24.09046972368, 24.06560912413, 24.06448532354, 6.305712596484, 99.86147782882, 100, 99.8966646336, 125.450145705, 141.5032122783, 126.2373043784, 125.8446665491, 123.8584085901, 125.0732606531, 123.0841721786, 126.2373043784, -31.42093781016, -30.99456300517, -31.6644817906, -31.30602645064, -31.15972744473, -72.81195072145, -82.62144744593, -71.42097878914, -72.18774642959, -70.97137171906, -73.45089207744, -72.23855342865, -71.42097878914, 44.34154115458, 43.92650102449, 44.25812446967, 44.3191989891, 44.25247192687, 44.31406900305
1.65, 0.09667139947893, 0, 6, 1.982784685611, 0.3210006488963, 0.3211929594291, 1.346792277057, 1.763231821497, -0.6645367289025, -1.349073795841, 24.46316271123, 24.46059149949, 24.43639918333, 24.43531626393, 6.367669351201, 99.8637324672, 100, 99.8990186884, 126.04170524, 142.1039035169, 126.8406088564, 126.4355991507, 124.4482093494, 125.6653675126, 123.6751516102, 126.8406088564, -31.36726743226, -30.93829321659, -31.61072380591, -31.24953722208, -31.10631323233, -73.17384300989, -82.96840410087, -71.76243236364, -72.54935860431, -71.33484749636, -73.81322677834, -72.6027472436, -71.76243236364, 44.32315010475, 43.90807243347, 44.23979041274, 44.30102190382, 44.23376037391, 44.29551192881
1.675, 0.09834562626635, 0, 6, 1.985968569621, 0.3385093444472, 0.3387127967731, 1.361653221307, 1.776352186969, -0.644310270274, -1.332357991858, 24.83317311593, 24.83071774697, 24.80720190778, 24.80616000222, 6.421039899857, 99.86596158681, 100, 99.90141849919, 126.6335860679, 142.7050329085, 127.4438682711, 127.0268523677, 125.0383169314, 126.2578100483, 124.2664534294, 127.4438682711, -31.31288253688, -30.88187272964, -31.5558476936, -31.19278541858, -31.05255409735, -73.53522230095, -83.31464139978, -72.10392423484, -72.91045503821, -71.69783343215, -74.17505475457, -72.96645992353, -72.10392423484, 44.30474047691, 43.88959948777, 44.22139353338, 44.28281598039, 44.21498720922, 44.27692580534
1.7, 0.09998811160918, 0, 6, 1.989922846308, 0.3557690354401, 0.3559837142971, 1.376587483749, 1.788706991795, -0.6244975350558, -1.315073872054, 25.20318684047, 25.20084842508, 25.178017712, 25.17701680179, 6.465772231576, 99.86818163137, 100, 99.90384420156, 127.225795892, 143.3065987291, 128.0470941308, 127.6184319298, 125.6287374215, 126.8505944259, 124.8580832605, 128.0470941308, -31.25781559082, -30.82526853973, -31.50015215997, -31.13581813276, -30.9984973281, -73.89608141856, -83.6601596906, -72.44543586948, -73.27102921691, -72.06032058351, -74.53636732354, -73.32968188596, -72.44543586948, 44.28628953932, 43.87106977855, 44.20294907167, 44.26455992267, 44.19616730557, 44.25828843938
1.725, 0.1015920460877, 0, 6, 1.993908876623, 0.3728747235797, 0.3731006274312, 1.392114137128, 1.800709521955, -0.6055404006005, -1.297554701801, 25.57320475858, 25.57098403932, 25.54884703915, 25.54788702994, 6.501910942601, 99.87040802604, 100, 99.90628012007, 127.8183438233, 143.9086003164, 128.6502995189, 128.2103437034, 126.2194768174, 127.4437267353, 125.4500468421, 128.6502995189, -31.20209324618, -30.7684789136, -31.4436021824, -31.07878336716, -30.94395698151, -74.25641412502, -84.00495776636, -72.78694963039, -73.63107448942, -72.42230034163, -74.89715617695, -73.69240399826, -72.78694963039, 44.26778294892, 43.85248380795, 44.18447859803, 44.24623684868, 44.17732191104, 44.23958258964
1.75, 0.10320559242, 0, 6, 1.997083714724, 0.3898913118621, 0.3901282786312, 1.408477010715, 1.812786492849, -0.5876532047869, -1.280376352946, 25.94322762222, 25.94112518798, 25.91969027055, 25.91877105008, 6.529557424336, 99.8726478218, 100, 99.90869970683, 128.4112393985, 144.5110355474, 129.2534983252, 128.8025933759, 126.8105413206, 128.0372124677, 126.0423499606, 129.2534983252, -31.14575046929, -30.71143403692, -31.38644402867, -31.02165922645, -30.88881397446, -74.61621507212, -84.34903700383, -73.12844834087, -73.99058404545, -72.78376431539, -75.2574135525, -74.05461723519, -73.12844834087, 44.24921500381, 43.8338528131, 44.16600311756, 44.22783783223, 44.15847237891, 44.22079897933
1.775, 0.1048342526147, 0, 6, 1.998781635968, 0.4068428671326, 0.4070905578477, 1.425717142967, 1.825515974442, -0.5708969170498, -1.264186275375, 26.31325615072, 26.31127258363, 26.29054731247, 26.28966903225, 6.548925797983, 99.87491317308, 100, 99.91108015825, 129.0044906546, 145.1138965374, 129.8567034507, 129.3951863484, 127.4019380712, 128.6310557364, 126.634998733, 129.8567034507, -31.08885502148, -30.65415462189, -31.32904029036, -30.96456281031, -30.83288321631, -74.9754790204, -84.69240847105, -73.46991426707, -74.34955134745, -73.14470399251, -75.61713193054, -74.41631199644, -73.46991426707, 44.23059011483, 43.81519458043, 44.14754225405, 44.20937310414, 44.13963929451, 44.20194868719
1.8, 0.1064183546798, 0, 6, 1.998733608038, 0.4237026718128, 0.4239606149394, 1.443739558794, 1.839353899711, -0.5552724352843, -1.249342837326, 26.6832910394, 26.6814270036, 26.66141750479, 26.6605806385, 6.560370892237, 99.87721617258, 100, 99.91341057284, 129.5981027602, 145.7171682743, 130.4599255117, 129.9881275858, 127.9936749017, 129.2252592044, 127.2279989667, 130.4599255117, -31.03151503629, -30.59668985568, -31.27154578749, -30.90757006846, -30.77612373141, -75.33420024229, -85.03509536955, -73.81132838397, -74.70797034947, -73.50511025735, -75.97630401407, -74.77747759973, -73.81132838397, 44.211923852, 43.79653008286, 44.12911412062, 44.19086804797, 44.1208423, 44.18305853342
1.825, 0.1078530110884, 0, 6, 1.997014642089, 0.4403989217194, 0.4406665684423, 1.462326051205, 1.854414279614, -0.5407539696226, -1.235841722112, 27.05333298716, 27.05158914375, 27.03229976593, 27.03150496338, 6.564337207668, 99.87956119369, 100, 99.91568629808, 130.1920783272, 146.3208312752, 131.0632420874, 130.5814215899, 128.5857595114, 129.8198243705, 127.8213556015, 131.0632420874, -30.97386311341, -30.53922702272, -31.21418664034, -30.8506710034, -30.71861382257, -75.69237272326, -85.37712867375, -74.15272410796, -75.06583557101, -73.8649735864, -76.3349229015, -75.13810274881, -74.15272410796, 44.19324045341, 43.77788204719, 44.1107352869, 44.17235287637, 44.10209956946, 44.16416089349
1.85, 0.1090234824248, 0, 6, 1.993905772975, 0.456827204316, 0.4571039713574, 1.480981975971, 1.870475512176, -0.5271471982994, -1.223492221174, 27.4233825352, 27.42175956575, 27.40319269696, 27.4024407203, 6.561307843551, 99.88194419859, 100, 99.91791870782, 130.7864181009, 146.9248641743, 131.6666485184, 131.175071968, 129.1781988323, 130.4147512744, 128.4150724576, 131.6666485184, -30.91604047049, -30.48182673053, -31.15706930903, -30.79398154039, -30.66048809501, -76.04999084873, -85.71854281789, -74.49412072703, -75.42314191309, -74.22428475562, -76.69298248062, -75.49817643906, -74.49412072703, 44.17456781959, 43.75927272179, 44.09241337826, 44.15385528376, 44.08341990451, 44.14528636385
1.875, 0.109882590183, 0, 6, 1.989887171143, 0.4728531053829, 0.4731384279191, 1.499016870458, 1.887131122213, -0.514000792301, -1.211972512474, 27.79344011118, 27.79193877918, 27.77409477184, 27.77338638974, 6.55171943929, 99.88434933382, 100, 99.92012624122, 131.3811206229, 147.5292437049, 132.2701290083, 131.769081086, 129.7709987677, 131.0100382897, 129.0091520257, 132.2701290083, -30.85819484471, -30.42455225132, -31.10024835356, -30.73739124918, -30.60201152103, -76.40704990434, -86.05937560193, -74.83552214694, -75.77988498985, -74.58303553745, -77.05047806451, -75.85768861948, -74.83552214694, 44.15593082362, 43.74071732426, 44.07413790251, 44.13539756162, 44.0647950308, 44.12646018409
1.9, 0.1104488721954, 0, 6, 1.985653293322, 0.4883353327109, 0.4886287445567, 1.515847333545, 1.903902574325, -0.5008675158423, -1.200965087328, 28.16350607049, 28.16212722557, 28.14500437072, 28.14434037797, 6.535946850792, 99.88675686347, 100, 99.92232352446, 131.9761821074, 148.1339469575, 132.8736743963, 132.3634500659, 130.3641638963, 131.6056826024, 129.6035954957, 132.8736743963, -30.80046654022, -30.36743741231, -31.04379019222, -30.68095382914, -30.54348877242, -76.76354583629, -86.39966431933, -75.1769357015, -76.13606172981, -74.9412192151, -77.4074062065, -76.21663081693, -75.1769357015, 44.13734655702, 43.72221898291, 44.05588896131, 44.11699751333, 44.04620640074, 44.1077020787
1.925, 0.1106924916381, 0, 6, 1.982016050576, 0.5031726848816, 0.5034739049475, 1.531124454374, 1.920339610506, -0.4875017974231, -1.189989806267, 28.53358087495, 28.53232520055, 28.51592008504, 28.51530118849, 6.514318829415, 99.88915335672, 100, 99.92453118874, 132.5715973753, 148.738954614, 133.477274592, 132.9581792583, 130.9576971646, 132.2016812713, 130.1984028433, 133.477274592, -30.74297045525, -30.31084715064, -30.98754060374, -30.62471914188, -30.48527812111, -77.11947501379, -86.73944034675, -75.51836820604, -76.49167054689, -75.29883074081, -77.76376451448, -76.57499653233, -75.51836820604, 44.11882316472, 43.70376951927, 44.03764563477, 44.09866613265, 44.02763341203, 44.08902310983
1.95, 0.1106191802999, 0, 6, 1.979665966711, 0.5173037487357, 0.5176126943899, 1.544727785897, 1.935856479818, -0.4738285281215, -1.178477824602, 28.90366478833, 28.90253280375, 28.88684096407, 28.88626759035, 6.487038612109, 99.89152551257, 100, 99.92677049021, 133.1673614584, 149.3442538077, 134.0809200995, 133.5532680096, 131.5515993707, 132.798031796, 130.7935727633, 134.0809200995, -30.68577964224, -30.2547431553, -30.93150892197, -30.56874304771, -30.42755303571, -77.47483495254, -87.07872429072, -75.8598268189, -76.84671089227, -75.65586689463, -78.11955176399, -76.93278174867, -75.8598268189, 44.10035883217, 43.68535323506, 44.0193880222, 44.08039762115, 44.00905629313, 44.07041757542
1.975, 0.1103021076709, 0, 6, 1.978944691221, 0.5306824070138, 0.5309991121419, 1.556664425043, 1.949894918812, -0.4598949496246, -1.166113085207, 29.27375810369, 29.27274995975, 29.25776666095, 29.25723886143, 6.454158148296, 99.89385941856, 100, 99.92905212554, 133.7634709786, 149.9498393837, 134.6846033937, 134.1487151613, 132.1458693159, 133.3947323539, 131.389103108, 134.6846033937, -30.62891838646, -30.19927505312, -30.87547123656, -30.51310196883, -30.37056950185, -77.82962509013, -87.41752373935, -76.20131981869, -77.20118321403, -76.01232661365, -78.47476795282, -77.28998528465, -76.20131981869, 44.08194084215, 43.66695054027, 44.00109722889, 44.06216962749, 43.99045691921, 44.05186331365
2, 0.1098412701049, 0, 6, 1.979843358086, 0.5432929308021, 0.543617456881, 1.56704268102, 1.962183355916, -0.4458104191532, -1.152912907689, 29.64386101204, 29.64297657964, 29.62869732826, 29.62821487145, 6.415621856637, 99.89614800233, 100, 99.93138025319, 134.359924275, 150.5557116088, 135.2882771583, 134.7445190106, 132.7405046698, 133.9917815953, 131.984991562, 135.2882771583, -30.57237626162, -30.14440068655, -30.8193276992, -30.4579128196, -30.31434520541, -78.18384657671, -87.75583699408, -76.54282637033, -77.55508867932, -76.3682108224, -78.82941408466, -77.64660830479, -76.54282637033, 44.06354737034, 43.64853978385, 43.98275565619, 44.04395274977, 43.97181850744, 44.0333304673
2.025, 0.1093778020071, 0, 6, 1.982136991533, 0.5551730397776, 0.5555054318557, 1.576227791365, 1.972778485103, -0.4317611753385, -1.139137054236, 30.01397376492, 30.01321266344, 29.99963349113, 29.99919594074, 6.37133051509, 99.89839110162, 100, 99.93374538129, 134.956720817, 151.1618729462, 135.8919465412, 135.3406777344, 133.3355027831, 134.589178732, 132.5812360708, 135.8919465412, -30.51612811772, -30.09011206135, -30.76309710336, -30.40310941276, -30.25891116253, -78.53750146067, -88.09365858558, -76.88433234939, -77.908429293, -76.7235217014, -79.18349180099, -78.00265330897, -76.88433234939, 44.04515178882, 43.63009885829, 43.96435233256, 44.0257185624, 43.95313007307, 44.01478997592
2.05, 0.108971207678, 0, 6, 1.985421137167, 0.5664379099805, 0.566778172281, 1.584892748299, 1.982025906437, -0.4181535082536, -1.125090716751, 30.38409675546, 30.38345825295, 30.37057581817, 30.37018266981, 6.321201189198, 99.90059939259, 100, 99.93612753004, 135.5538614401, 151.7683273196, 136.4956346834, 135.937189964, 133.9308611305, 135.1869238172, 133.1778351, 136.4956346834, -30.46014025524, -30.03650426372, -30.70683823299, -30.3488406978, -30.20413690945, -78.89059189565, -88.43098054714, -77.22584894082, -78.26120775077, -77.07826183985, -79.5370026495, -78.35812324452, -77.22584894082, 44.0267289158, 43.61161071465, 43.94589444541, 44.00744378579, 43.9343962846, 43.99621754953
2.075, 0.1086249595705, 0, 6, 1.989072580469, 0.5772537862014, 0.5776018233787, 1.593697933037, 1.990411089179, -0.4054366883958, -1.111075548859, 30.75423025876, 30.75371341797, 30.74152515364, 30.74117578882, 6.265179344294, 99.90278972185, 100, 99.93850974168, 136.1513487497, 152.3750793229, 137.0993445768, 136.5340546598, 134.5265775499, 135.785017668, 133.774787611, 137.0993445768, -30.40437663886, -29.98332456341, -30.65056935806, -30.29511358619, -30.149796983, -79.24312025785, -88.76779390984, -77.56737783733, -78.61342648669, -77.4324337241, -79.88994811584, -78.71302096134, -77.56737783733, 44.00826047086, 43.59306960496, 43.92740160166, 43.98911048558, 43.91563475241, 43.97759336568
