Time,Alpha_L1i,Alpha_L1o,Alpha_L2i,Alpha_L2o,Alpha_R1i,Alpha_R1o,Alpha_R2i,Alpha_R2o,AVz,Ay,Bk_Stat,Fx_L1,Fx_L2,Fx_R1,Fx_R2,Fy_L1,Fy_L2,Fy_R1,Fy_R2,Fz_L1,Fz_L1i,Fz_L2,Fz_L2i,Fz_L2o,Fz_R1,Fz_R1i,Fz_R2,Fz_R2i,Fz_R2o,Lat_Targ,Lat_Veh,Pitch,PitchGL1,PitchGL2,PitchGR1,PitchGR2,Pitch_A1,Pitch_A2,Roll,RollGL1,RollGL2,RollGR1,RollGR2,Roll_A1,Roll_A2,Roll_E,Roll_L1,Roll_L2,Roll_R1,Roll_R2,Rot_L1,Rot_L2,Rot_R1,Rot_R2,Station,Steer_L1,Steer_L2,Steer_R1,Steer_R2,Steer_SW,Vx,VxTarget,Vxz_Fwd,Xctc_L1o,Xctc_L2o,Xctc_R1o,Xctc_R2o,Xo,X_A1,X_A2,X_L1,X_L2,X_R1,X_R2,Yaw,Yaw_L1,Yaw_L2,Yaw_R1,Yaw_R2,Yctc_L1o,Yctc_L2o,Yctc_R1o,Yctc_R2o,Yo,Y_A1,Y_A2,Y_L1,Y_L2,Y_R1,Y_R2,Zgnd_L1o,Zgnd_L2o,Zgnd_R1o,Zgnd_R2o,Zo,Z_A1,Z_A2,Z_L1,Z_L2,Z_R1,Z_R2
0, -0, 0, 0, 0, -0, 0, 0, 0, 0, -5.112463983084e-33, 0, 3.786857173214e-11, 0, 3.786857173214e-11, 0, 0, -0, 0, -0, 19050.99150209, 19050.99150209, 10575.96181522, 5287.98090761, 5287.98090761, 19050.99150209, 19050.99150209, 10575.96181522, 5287.98090761, 5287.98090761, 0, 0, -0.06825186537218, -0, -0, -0, -0, -0.06825186537218, -0.06825186537218, 0, 0, 0, 0, 0, 0, 0, 0, 0, 0, -0, -0, -0.0001895885149227, -0.0001895885149227, -0.0001895885149227, -0.0001895885149227, 0, 0, 0, -0, 0, 0, 70, 70, 70, -0.0006075219397205, -5.000627798819, -0.0006075219397205, -5.000627798819, 0, -0.0006075219397205, -5.000627798819, -0.0006075219397205, -5.000627798819, -0.0006075219397205, -5.000627798819, 0, 1.602653226532e-15, 0, -1.602653226532e-15, 0, 1.015, 1.0865, -1.015, -1.0865, 0, 4.2323e-22, 5.317e-21, 1.015, 0.9315, -1.015, -0.9315, -0, -0, -0, -0, -0.009439425400917, 0.500560212753, 0.5146041011147, 0.500560212753, 0.5146041011147, 0.500560212753, 0.5146041011147
0.025, 0.004362203593296, 0, 0.001236556817385, 0.001236557982846, -0.07946225078819, 0, 0.001236550978834, 0.001236549813386, 0.003368055657996, 0.002014394218608, 0, -102.6448809333, -51.16510232001, -102.6817395932, -51.67008655303, -6.539924286345, -1.055429284969, 128.2560264276, -1.056105500091, 19031.70826313, 19031.70826313, 10599.66683332, 5300.188704066, 5299.478129257, 19069.85350021, 19069.85350021, 10608.20748409, 5303.748454639, 5304.459029448, 0, 8.410062513955e-06, -0.06849467610351, -0, -0, -0, -0, -0.07030430605411, -0.06849467610351, 0.0002646723442913, 0, 0, 0, 0, 0.001463028139717, 0.0001340123984607, 0.0002646725334156, 0.00162730334494, 0.0001340123027009, -0.006097545985573, 0.0001340123027009, 0.1514276341864, 0.1514594875818, 0.1514264278873, 0.1514595810146, 0.4860508662531, -0.001781113034543, 0, 0.08205247144636, 0, -0.001713732393087, 69.98078865007, 70, 69.98062275873, 0.4854437106881, -4.514579761204, 0.4855850316845, -4.514578579152, 0.4860508662531, 0.4854411822436, -4.514579170178, 0.4854437102544, -4.514579676888, 0.4855849553771, -4.514578663467, 3.100711422043e-05, -0.001748161820142, 3.116732032493e-05, 0.08207624779751, 3.116732032493e-05, 1.01501916228, 1.086504014427, -1.01504821988, -1.086495985578, 8.410062513955e-06, 4.945295240937e-06, 2.81082152132e-06, 1.01500494491, 0.9315028108188, -1.014994951237, -0.9314971891758, -0, -0, -0, -0, -0.009446595886912, 0.5005536849508, 0.5145898279788, 0.5005798893255, 0.5145920067163, 0.5005409629816, 0.5145876492414
0.05, 0.008676141190134, 0, 0.002488150552865, 0.002488157963898, -0.07183188881931, 0, 0.002488113426641, 0.002488106015872, 0.01066845108686, 0.002640644305838, 0, -101.9972080037, -94.08712324255, -102.9134976979, -95.40249018281, -14.27867147868, -3.607381701257, 178.4025790461, -3.619791380931, 19031.09352612, 19031.09352612, 10668.01266462, 5335.776684915, 5332.235979708, 19095.92803807, 19095.92803807, 10710.56965688, 5353.514475837, 5357.055181044, 0, 4.82103566682e-05, -0.06891050871007, -0, -0, -0, -0, -0.07075274607845, -0.06891050871007, 0.001397323669087, 0, 0, 0, 0, 0.002208691926194, 0.0006677669899804, 0.001397324679719, 0.002453812255881, 0.00066776650701, -0.004966479339805, 0.00066776650701, 0.302992524779, 0.3030110570394, 0.3029893491398, 0.3030120425248, 0.9719630534264, -0.002657459078367, 0, 0.07785924717891, 0, -0.01067930825133, 69.95961393726, 70, 69.9594466456, 0.9713506877652, -4.028674630759, 0.9714892063672, -4.028666969202, 0.9719630534264, 0.9713496607325, -4.02867079996, 0.9713506868472, -4.02867408424, 0.971489147263, -4.02866751568, 0.0002012101519995, -0.002453299611507, 0.0002020132853591, 0.07805454020097, 0.0002020132853591, 1.015056457105, 1.08652123726, -1.015008271837, -1.086478762874, 4.82103566682e-05, 3.501956088572e-05, 1.524029758135e-05, 1.015035018692, 0.9315152402285, -1.014964886584, -0.9314847596334, 1.110223024625e-16, -0, -0, -0, -0.009465406444931, 0.5005409613818, 0.5145462799851, 0.500580516351, 0.5145571363607, 0.5005143572645, 0.5145354236095
0.075, 0.01199616125127, 0, 0.002831019396746, 0.002831034969157, -0.06752155642092, 0, 0.002830941386568, 0.002830925815187, 0.01971725861011, 0.002702923562691, 0, -100.9863611909, -126.4972967477, -102.2608955751, -128.5098624285, -24.21329038146, -5.27686235711, 195.5803522133, -5.316379668216, 19033.37616454, 19033.37616454, 10703.47013979, 5355.313860211, 5348.156279575, 19122.0317005, 19122.0317005, 10789.49964124, 5391.171030301, 5398.328610937, 0, 0.0001216430473201, -0.06913728404965, -0, -0, -0, -0, -0.0711504206479, -0.06913728404965, 0.003159205309393, 0, 0, 0, 0, 0.002883335191458, 0.001349899474866, 0.003159207609391, 0.003198800312536, 0.001349898492099, -0.004130964245032, 0.001349898492099, 0.4545088989844, 0.4544704470319, 0.4545054696722, 0.4544741249482, 1.457720803591, -0.003419872224566, 0, 0.07610621985612, 0, -0.02896371587457, 69.93731767481, 70, 69.93731557765, 1.457101033342, -3.542926149837, 1.457248562145, -3.542904132121, 1.457720803591, 1.457105380986, -3.542915140856, 1.457101031958, -3.542924579192, 1.457248513852, -3.542905702521, 0.0005789151746664, -0.002837099636371, 0.0005805440618479, 0.07668020530481, 0.0005805440618479, 1.015121716122, 1.08654785675, -1.014942223047, -1.086452143741, 0.0001216430473201, 9.377052755102e-05, 3.573439259481e-05, 1.015093769043, 0.9315357340862, -1.014906138451, -0.9314642653011, -0, -0, -0, -0, -0.009489381755957, 0.5005265577042, 0.5145170994029, 0.5005781868071, 0.5145390457042, 0.5004877214538, 0.5144951531015
0.1, 0.01435314226378, 0, 0.001946834406831, 0.001946850261272, -0.06507328192843, 0, 0.001946754985079, 0.001946739132189, 0.02920677862029, 0.002618699228917, 0, -100.6096021674, -141.8222097913, -102.0309777244, -144.1639878973, -33.73791704628, -4.86089570554, 199.4568895132, -4.918703109641, 19037.110296, 19037.110296, 10674.83845901, 5342.526254137, 5332.312204874, 19142.66428668, 19142.66428668, 10797.60474145, 5393.695346093, 5403.909395357, 0, 0.0002174244326709, -0.068871340188, -0, -0, -0, -0, -0.07095568553093, -0.068871340188, 0.004838857814342, 0, 0, 0, 0, 0.003361089025592, 0.001926340806806, 0.004838861310129, 0.00376274572848, 0.001926339415141, -0.003558466849314, 0.001926339415141, 0.605974156295, 0.6058504956495, 0.6059730049963, 0.6058593957863, 1.943312371348, -0.004354458157631, 0, 0.07508005987872, 0, -0.05587491896769, 69.9143189147, 70, 69.91454698387, 1.942685745361, -3.057343763044, 1.942851532592, -3.057298525326, 1.943312371348, 1.942699305339, -3.057321143825, 1.942685743548, -3.05734053588, 1.942851491218, -3.057301751771, 0.001190473386772, -0.00315946498367, 0.001192788908827, 0.07626630946657, 0.001192788908827, 1.015208577341, 1.086576147124, -1.01485528627, -1.086423853634, 0.0002174244326709, 0.000175705609929, 5.884800735373e-05, 1.015175703469, 0.931558847279, -1.014824203833, -0.9314411512643, -0, -0, -0, -0, -0.009511190789733, 0.5005141331865, 0.5145223356274, 0.5005743761695, 0.5145536535566, 0.50046666813, 0.5144910176983
0.125, 0.01600269299793, 0, 0.0002941805299473, 0.0002941836723598, -0.06352167227243, 0, 0.0002941647884844, 0.0002941616464752, 0.03832105138873, 0.002550938709454, 0, -100.9225525529, -137.7410731442, -102.3312229849, -139.9694591035, -41.50040769237, -2.532645205302, 198.6550387502, -2.57579776248, 19042.6758444, 19042.6758444, 10598.47211668, 5305.020474436, 5293.451642241, 19153.75892501, 19153.75892501, 10737.5220159, 5362.976591852, 5374.545424047, 0, 0.0003232835476467, -0.0681631814266, -0, -0, -0, -0, -0.07019891801389, -0.0681631814266, 0.005772876963747, 0, 0, 0, 0, 0.003509730955651, 0.00218184900403, 0.005772881048981, 0.004022948750804, 0.002181847460024, -0.003306393313202, 0.002181847460024, 0.7573870354241, 0.7571708699528, 0.7573908745308, 0.7571877172156, 2.428735607816, -0.005564790376046, 0, 0.07396739396031, 0, -0.0899155953236, 69.89116120176, 70, 69.89151641818, 2.428102405368, -2.57193007628, 2.428294102707, -2.571852754731, 2.428735607816, 2.428128836459, -2.571891414808, 2.428102403206, -2.57192456024, 2.428294064399, -2.571858269377, 0.002036151872905, -0.00352385646067, 0.002038747556842, 0.07599966386091, 0.002038747556842, 1.015309111993, 1.086599544256, -1.014754821595, -1.086400455944, 0.0003232835476467, 0.0002739679449464, 7.994960290173e-05, 1.015273965212, 0.9315799483378, -1.014725941619, -0.931420049132, -0, -0, -0, -0, -0.009528107081761, 0.5005056259857, 0.5145571439809, 0.5005686968841, 0.5145926158939, 0.5004553472024, 0.5145216720678
0.15, 0.0175150127459, 0, -0.001486425742002, -0.001486445017877, -0.06212591922668, 0, -0.001486329183611, -0.00148630991074, 0.04652687780249, 0.002515458172841, 0, -101.717921843, -115.9118498837, -103.0023327774, -117.723171383, -47.68602358384, 0.7422284068477, 196.2440261095, 0.7370985645884, 19052.54195257, 19052.54195257, 10526.66942714, 5268.703048215, 5257.966378927, 19156.94921117, 19156.94921117, 10655.7172651, 5322.490297906, 5333.226967194, 0, 0.0004331091395058, -0.06737778381994, -0, -0, -0, -0, -0.06928128900866, -0.06737778381994, 0.005671307251599, 0, 0, 0, 0, 0.003304729281212, 0.002024905402644, 0.005671311173003, 0.00395204869077, 0.002024904002532, -0.003386943106748, 0.002024904002532, 0.9087483718797, 0.9084542512103, 0.9087597726134, 0.9084814368371, 2.913997732328, -0.007020180095154, 0, 0.07262833078997, 0, -0.1298999139707, 69.86839572552, 70, 69.86868485546, 2.913355230007, -2.08668089523, 2.913579699957, -2.086563270172, 2.913997732328, 2.913397945318, -2.086622081716, 2.913355227647, -2.086672504055, 2.913579660859, -2.086571659378, 0.003099054310729, -0.003916483182166, 0.003101435526383, 0.07572345162681, 0.003101435526383, 1.015419305488, 1.086615945515, -1.01464471082, -1.086384052658, 0.0004331091395058, 0.0003847821606494, 9.775995519203e-05, 1.015384778825, 0.9315977580088, -1.014615127466, -0.9314022380984, -0, -1.110223024625e-16, -0, 1.110223024625e-16, -0.009541537613265, 0.5004989561401, 0.5145963296041, 0.5005586294699, 0.5146292499709, 0.5004520917673, 0.5145634092373
0.175, 0.01944447789034, 0, -0.002829079887109, -0.002829122128651, -0.06036666364937, 0, -0.002828868289599, -0.002828826055637, 0.05356486912149, 0.002461081626277, 0, -102.6927186509, -80.09671901891, -103.7901305689, -81.45634435143, -53.37730459342, 3.763603791503, 192.7101809761, 3.787448956543, 19066.84500555, 19066.84500555, 10511.68509141, 5259.976330845, 5251.708760566, 19155.42447377, 19155.42447377, 10611.05595225, 5301.394190987, 5309.661761267, 0, 0.0005487414023924, -0.06694944849202, -0, -0, -0, -0, -0.06869169885498, -0.06694944849202, 0.004698584265008, 0, 0, 0, 0, 0.002834607016868, 0.001559240313073, 0.004698587472651, 0.003634434828099, 0.001559239248607, -0.003719620716307, 0.001559239248607, 1.060060491043, 1.059722445381, 1.060081739728, 1.059761780856, 3.399110756659, -0.008675267064994, 0, 0.07114326544447, 0, -0.1753804900664, 69.84649184215, 70, 69.8465545558, 3.398452749419, -1.601587697376, 3.398716144026, -1.601422543094, 3.399110756659, 3.398514776784, -1.601505119171, 3.398452747026, -1.601575915864, 3.398716101219, -1.601434322478, 0.004352822942443, -0.004318203264343, 0.004354644896105, 0.0754917900137, 0.004354644896105, 1.015540341807, 1.086628692956, -1.014523803341, -1.086371301572, 0.0005487414023924, 0.0005085951196816, 0.0001146911259938, 1.01550859087, 0.9316146880907, -1.014491314104, -0.9313853058387, -0, 1.110223024625e-16, -0, -1.110223024625e-16, -0.009553460607015, 0.5004924234474, 0.5146115454616, 0.5005440347016, 0.514636895171, 0.5004536474416, 0.5145861957522
0.2, 0.02208874547377, 0, -0.003518629061016, -0.003518687311369, -0.05794087261229, 0, -0.003518337274567, -0.003518279035803, 0.05937158165481, 0.002338630502992, 0, -103.5868876252, -35.88331720575, -104.4868276587, -36.92866885973, -59.7587088545, 5.820036123505, 187.7595003138, 5.84872094361, 19081.52277267, 19081.52277267, 10568.95635106, 5287.087055097, 5281.869295967, 19150.88760188, 19150.88760188, 10631.67044951, 5313.22634519, 5318.444104319, 0, 0.000677522475575, -0.06711125590834, -0, -0, -0, -0, -0.06870665534529, -0.06711125590834, 0.00334040979022, 0, 0, 0, 0, 0.002265169198834, 0.000984054581005, 0.003340412081697, 0.003238175897435, 0.0009840539059571, -0.004136249576756, 0.0009840539059571, 1.211326293297, 1.210992560546, 1.211359360328, 1.211045396786, 3.884086014228, -0.01055384013786, 0, 0.06948302680419, 0, -0.2264928359362, 69.82578951711, 70, 69.8255952539, 3.883404799008, -1.116640718103, 3.883712105304, -1.116421953439, 3.884086014228, 3.883488589419, -1.116531334881, 3.883404796646, -1.116625112738, 3.883712057857, -1.116437557024, 0.005767044300513, -0.004783010176653, 0.005768196935564, 0.07524527352532, 0.005768196935564, 1.015677003854, 1.086644103884, -1.01438731539, -1.086355885425, 0.000677522475575, 0.0006487213998375, 0.0001352711274181, 1.015648715537, 0.9316352662695, -1.01435118675, -0.9313647240147, -0, -0, -0, -0, -0.0095623857485, 0.5004872317243, 0.5145916767607, 0.5005290575958, 0.5146076752552, 0.5004582766532, 0.5145756782662
0.225, 0.02534211872212, 0, -0.003721097802854, -0.003721164266117, -0.05500223165871, 0, -0.003720764879083, -0.003720698430086, 0.0640298522703, 0.002125085792383, 0, -104.2743739895, 9.894684392193, -105.00621387, 9.032991993829, -67.5162870537, 6.68938793703, 181.1621847829, 6.688753647191, 19089.46373214, 19089.46373214, 10666.64717891, 5334.65327403, 5331.993904883, 19142.20735811, 19142.20735811, 10698.61108034, 5347.975855595, 5350.635224742, 0, 0.0008277182960666, -0.06776675617917, -0, -0, -0, -0, -0.06924590805047, -0.06776675617917, 0.002155782335706, 0, 0, 0, 0, 0.001768798079881, 0.0005015494893255, 0.002155783843574, 0.002936263977924, 0.0005015491385156, -0.004468146138259, 0.0005015491385156, 1.362548510882, 1.362272698733, 1.362595078029, 1.362340199839, 4.368930780919, -0.01266209095461, 0, 0.06768940773721, 0, -0.2835067525163, 69.80643332115, 70, 69.80608795653, 4.368220055036, -0.6318312312739, 4.368575263029, -0.6315539052565, 4.368930780919, 4.368327519995, -0.6316925676904, 4.368220052643, -0.6318114490457, 4.368575211943, -0.631573686335, 0.007311698732806, -0.005346928217046, 0.00731229194184, 0.07499586886043, 0.00731229194184, 1.015834450696, 1.086668496136, -1.014230125749, -1.08633148625, 0.0008277182960666, 0.0008088087184621, 0.000164000737698, 1.015808800261, 0.931663993116, -1.014191097423, -0.9313359916406, -0, -1.110223024625e-16, -1.110223024625e-16, -0, -0.009562310862223, 0.5004875827058, 0.5145496789958, 0.5005209547181, 0.5145578330523, 0.5004671338271, 0.5145415249393
0.25, 0.02882971045427, 0, -0.003707736331868, -0.003707806319598, -0.0518796970432, 0, -0.003707385755689, -0.003707315783835, 0.06763620635723, 0.001852576592116, 0, -104.8367259152, 54.30605041084, -105.4373196593, 53.63408783608, -76.56453291209, 7.118780341785, 173.1641077399, 7.128050412639, 19083.88901922, 19083.88901922, 10747.12033517, 5374.237065264, 5372.883269906, 19126.58310281, 19126.58310281, 10763.39208195, 5381.019143298, 5382.372938656, 0, 0.001004302786544, -0.06858706631081, -0, -0, -0, -0, -0.06995950816121, -0.06858706631081, 0.001543246866616, 0, 0, 0, 0, 0.001459819542197, 0.0002553219746667, 0.001543247972336, 0.002843157752421, 0.0002553217917315, -0.00459613531004, 0.0002553217917315, 1.513729471651, 1.513564375433, 1.513790972887, 1.513647657192, 4.853648701017, -0.01500179160965, 0, 0.06571470186497, 0, -0.3463690068902, 69.78842317988, 70, 69.7880859068, 4.85290557421, -0.1471520612881, 4.853311630695, -0.1468122440089, 4.853648701017, 4.853038144294, -0.1469821522899, 4.852905571593, -0.1471278217771, 4.853311578374, -0.1468364828028, 0.008959701716037, -0.00603869719598, 0.008960007354274, 0.0746689486061, 0.008960007354274, 1.016015371822, 1.086705943096, -1.014049504211, -1.086294030355, 0.001004302786544, 0.0009905466241853, 0.0002036635964867, 1.015990534457, 0.9317036521972, -1.014009356646, -0.9312963250042, -0, -0, -0, -0, -0.009545746235682, 0.5004983680411, 0.5145126243783, 0.5005266432417, 0.5145167753341, 0.5004830768562, 0.5145084734225
0.275, 0.03207813924813, 0, -0.003922736060375, -0.003922813055061, -0.04898534429655, 0, -0.003922350387329, -0.003922273410804, 0.07030042328413, 0.001552779315219, 0, -105.3641653859, 93.48075347186, -105.8822952219, 92.9985126246, -86.19050917235, 7.366005647063, 164.4602438437, 7.376014118629, 19062.14944791, 19062.14944791, 10767.5261544, 5384.43794149, 5383.088212913, 19102.27695273, 19102.27695273, 10783.7490211, 5391.199646262, 5392.549374839, 0, 0.001206846200893, -0.06924754235672, -0, -0, -0, -0, -0.07050169024682, -0.06924754235672, 0.001614805992204, 0, 0, 0, 0, 0.001364311452297, 0.0002545549947717, 0.001614807171585, 0.002983563270613, 0.0002545548088564, -0.004489374230636, 0.0002545548088564, 1.66487132935, 1.664864941366, 1.664948957044, 1.664964975046, 5.338243162999, -0.0175589278487, 0, 0.06351163142761, 0, -0.4144071101972, 69.77165885755, 70, 69.77143468827, 5.337468062072, 0.3374036439038, 5.337926958038, 0.3378089213577, 5.338243162999, 5.337626743541, 0.337606283057, 5.337468058947, 0.3374325527541, 5.337926907257, 0.33778001336, 0.01068569684416, -0.006869637918355, 0.01068600449865, 0.07419194864837, 0.01068600449865, 1.016218636578, 1.086756924197, -1.013846528091, -1.086243038031, 0.001206846200893, 0.001192588529603, 0.0002546572424641, 1.016192571498, 0.9317546410324, -1.013807311149, -0.9312453265475, -0, -0, -0, -0, -0.009508801868987, 0.5005218314015, 0.5145022257155, 0.5005488264153, 0.5145063642019, 0.5005078791241, 0.5144980872291
0.3, 0.03472730120965, 0, -0.004593669746437, -0.004593762241554, -0.04663438286765, 0, -0.004593206431799, -0.004593113959063, 0.07209538672638, 0.001282919331469, 0, -105.9097752805, 126.2431281186, -106.3694382407, 125.9379658961, -95.3901913256, 8.140708824714, 156.0040276387, 8.160149445892, 19028.14554741, 19028.14554741, 10725.80359943, 5364.056031888, 5361.747567544, 19070.88977773, 19070.88977773, 10753.54985151, 5375.620693582, 5377.929157925, 0, 0.001429610031623, -0.06963165890562, -0, -0, -0, -0, -0.07075083818829, -0.06963165890562, 0.002189350115572, 0, 0, 0, 0, 0.001416160791829, 0.0004353698541881, 0.002189351732362, 0.00328802678421, 0.0004353695326766, -0.004212997555966, 0.0004353695326766, 1.815976384986, 1.816170352863, 1.816071093787, 1.816287788511, 5.822720184207, -0.02029795517907, 0, 0.06107087534587, 0, -0.4863692756548, 69.75596255649, 70, 69.75584444207, 5.82191490611, 0.8218433962802, 5.822427888324, 0.8223162565523, 5.822720184207, 5.822100371858, 0.822079827267, 5.821914902186, 0.8218771262346, 5.822427841089, 0.8222825282995, 0.01246744057057, -0.007826533681182, 0.01246796967617, 0.07353324074009, 0.01246796967617, 1.016439406208, 1.086819143103, -1.013625998115, -1.086180805511, 0.001429610031623, 0.001410702320632, 0.0003152591439735, 1.016410679275, 0.9318152370625, -1.013589193106, -0.9311847187745, -0, -0, -0, -0, -0.009454926788347, 0.5005551697035, 0.5145205730844, 0.5005835241273, 0.5145276512099, 0.5005399070369, 0.5145134949589
0.325, 0.03665403343908, 0, -0.00576897553915, -0.005769093186113, -0.04494611475802, 0, -0.005768386238037, -0.005768268619905, 0.07300379690425, 0.001082546626978, 0, -106.4333632474, 152.9129205893, -106.8347249483, 152.7293379372, -103.360047125, 9.799624377337, 148.632836596, 9.835287495501, 18990.99849014, 18990.99849014, 10660.28803071, 5331.903887901, 5328.384142807, 19037.62858187, 19037.62858187, 10702.59309593, 5349.53667542, 5353.056420514, 0, 0.001664003347231, -0.06986715666785, -0, -0, -0, -0, -0.07085215470512, -0.06986715666785, 0.002914920364033, 0, 0, 0, 0, 0.001503137767163, 0.0006638139854311, 0.002914922531228, 0.003639196073886, 0.0006638134918969, -0.003884194752428, 0.0006638134918969, 1.967047146295, 1.967476670318, 1.967159635875, 1.967611752431, 6.30708874654, -0.02316313790086, 0, 0.05844433900225, 0, -0.5606550219819, 69.74114302391, 70, 69.74103916755, 6.306254239045, 1.306175421367, 6.306821964441, 1.306717151962, 6.30708874654, 6.306466869756, 1.306446288151, 6.306254234119, 1.306214064474, 6.306821921369, 1.306678511828, 0.01428307322185, -0.00887564426378, 0.01428388268433, 0.07272271896966, 0.01428388268433, 1.016670975684, 1.086888711782, -1.013394616944, -1.086111220837, 0.001664003347231, 0.001639208391584, 0.0003827840310176, 1.016639178237, 0.9318827550217, -1.013360682076, -0.9311171869597, -0, -0, -0, 1.110223024625e-16, -0.009394622897384, 0.5005910727719, 0.5145502853923, 0.5006214291023, 0.5145610775008, 0.5005738472356, 0.5145394932839
0.35, 0.03798906361052, 0, -0.007251302904269, -0.007251450742225, -0.043816144479, 0, -0.007250562374529, -0.007250414572792, 0.07297727318254, 0.0009626444307304, 0, -106.851858662, 174.9134360979, -107.1747976137, 174.7842183069, -109.7163596893, 12.26309554982, 142.7890542743, 12.31739205738, 18960.78066588, 18960.78066588, 10622.0064489, 5313.153545876, 5308.852903029, 19008.92217735, 19008.92217735, 10673.69740132, 5334.698379237, 5338.999022085, 0, 0.001901750543014, -0.07018262000764, -0, -0, -0, -0, -0.07106113683634, -0.07018262000764, 0.003435903149233, 0, 0, 0, 0, 0.001521037735621, 0.0008110891020106, 0.00343590572689, 0.003926859097309, 0.0008110884935221, -0.003615957015487, 0.0008110884935221, 2.118086065997, 2.118780406088, 2.118216756633, 2.118933033086, 6.791358352331, -0.02608830487453, 0, 0.05572453187215, 0, -0.635671767153, 69.72703888664, 70, 69.72685980709, 6.790493811765, 1.79040755356, 6.791116404701, 1.791018572632, 6.791358352331, 6.7907336983, 1.790713065144, 6.790493805792, 1.790451139573, 6.791116365094, 1.790974990715, 0.0161098277136, -0.009973686710621, 0.01611082123083, 0.07182997183361, 0.01611082123083, 1.016907038376, 1.086962245874, -1.013158714324, -1.086037668439, 0.001901750543014, 0.001872763611203, 0.000455004416688, 1.016872725362, 0.9319549674983, -1.013127121106, -0.931044958665, -0, -0, -0, -0, -0.009341137365162, 0.5006211191958, 0.5145674224356, 0.5006522634508, 0.5145806089031, 0.5006031396384, 0.5145542359682
0.375, 0.03901616558647, 0, -0.008743460041622, -0.008743635854791, -0.04299264566835, 0, -0.008742579380782, -0.008742403610096, 0.07197068983649, 0.0009056752662025, 0, -107.1200226282, 193.9788420014, -107.3375493577, 193.8706749907, -114.6120507212, 15.12763085615, 138.413076941, 15.19430067515, 18944.09787764, 18944.09787764, 10639.76386121, 5322.028077091, 5317.735784119, 18989.42980373, 18989.42980373, 10691.35445351, 5343.531080268, 5347.823373239, 0, 0.002137504134955, -0.0707022122167, -0, -0, -0, -0, -0.07151782846428, -0.0707022122167, 0.003536488512516, 0, 0, 0, 0, 0.001414531009107, 0.0008095143480247, 0.003536491205063, 0.004089840924288, 0.000809513731692, -0.003472594848374, 0.000809513731692, 2.269095142359, 2.2700784502, 2.269244155265, 2.270248331319, 7.275535731171, -0.02900910673204, 0, 0.05300771757025, 0, -0.7101515285826, 69.71354020908, 70, 69.71327754463, 7.274639556123, 2.274545833098, 7.275316569992, 2.275225646036, 7.275535731171, 7.274906475746, 2.274885741841, 7.274639549212, 2.274594326401, 7.275316532432, 2.275177157282, 0.01792371936677, -0.01108036271315, 0.01792471829621, 0.07092719186437, 0.01792471829621, 1.017143483784, 1.087038383016, -1.012922427381, -1.085961510862, 0.002137504134955, 0.002107792599317, 0.0005311660466005, 1.017107745415, 0.9320311203696, -1.012892085536, -0.9309687882764, 1.110223024625e-16, -1.110223024625e-16, -1.110223024625e-16, -0, -0.009304775537123, 0.5006395587786, 0.5145583881337, 0.5006692866044, 0.514571548999, 0.500623029893, 0.5145452272683
0.4, 0.04003951102199, 0, -0.009962436532615, -0.009962631344943, -0.04218443420044, 0, -0.009961460700369, -0.00996126593382, 0.06998388871285, 0.0008769285605086, 0, -107.2844707789, 211.5927414011, -107.3779668626, 211.5251090681, -118.5728591886, 17.86905233894, 135.0391014865, 17.93274960721, 18941.93533288, 18941.93533288, 10702.30012402, 5352.893841937, 5349.40628208, 18980.35788047, 18980.35788047, 10744.21834345, 5370.365391798, 5373.852951654, 0, 0.002369903833276, -0.07132930820322, -0, -0, -0, -0, -0.07211768815705, -0.07132930820322, 0.003204232765652, 0, 0, 0, 0, 0.00119049762436, 0.0006577439611816, 0.003204235248699, 0.004130375458167, 0.0006577434514782, -0.00345291560065, 0.0006577434514782, 2.420075687061, 2.421368304988, 2.420242840425, 2.421555106901, 7.759623165577, -0.03187536958421, 0, 0.05035698989021, 0, -0.7832998192372, 69.70058666569, 70, 69.70032850844, 7.758694959934, 2.758593891013, 7.759425272895, 2.759341068429, 7.759623165577, 7.758988341065, 2.758967481752, 7.758694952268, 2.758647189179, 7.759425236007, 2.759287774326, 0.01970010766243, -0.01217014466482, 0.01970092650825, 0.07005283768704, 0.01970092650825, 1.017379064146, 1.087118054728, -1.012687013016, -1.085881816958, 0.002369903833276, 0.00234302822171, 0.0006122122015531, 1.017342971415, 0.9321121570745, -1.012656842561, -0.9308877326714, -0, -0, -1.110223024625e-16, -1.110223024625e-16, -0.009289208965288, 0.5006452724428, 0.5145289493366, 0.5006714932574, 0.51453964276, 0.500632286968, 0.5145182559133
0.425, 0.04125478888041, 0, -0.01073230763672, -0.01073250886245, -0.04118813139989, 0, -0.01073129967428, -0.01073109849389, 0.06709176668209, 0.0008372315911722, 0, -107.4719715484, 228.8054378126, -107.441071956, 228.8417613701, -122.2654541482, 19.97820864595, 132.0349293347, 20.02297573364, 18950.60169442, 18950.60169442, 10768.59856581, 5385.408982084, 5383.189583731, 18979.91489803, 18979.91489803, 10795.27430215, 5396.527451897, 5398.74685025, 0, 0.002600930615387, -0.07179857203961, -0, -0, -0, -0, -0.07256681079674, -0.07179857203961, 0.002602910183987, 0, 0, 0, 0, 0.0009038952248032, 0.0004185722795297, 0.002602912227681, 0.004100383601755, 0.0004185719508849, -0.003503862893751, 0.0004185719508849, 2.571028451993, 2.572648764862, 2.571213280606, 2.572852172235, 8.243619700174, -0.0346558611274, 0, 0.04779581800841, 0, -0.8547602990973, 69.68815359339, 70, 69.68802684131, 8.242661793497, 3.242553652083, 8.243443541258, 3.243365868764, 8.243619700174, 8.24298070036, 3.242959761828, 8.24266178522, 3.24261158887, 8.243443504278, 3.243307934787, 0.02141530104049, -0.01323544909239, 0.02141582556226, 0.06920676562964, 0.02141582556226, 1.017614858558, 1.087204016715, -1.012451382976, -1.085795831549, 0.002600930615387, 0.002579095497632, 0.0007003339321461, 1.017579028539, 0.9322002688378, -1.012420767332, -0.9307996009735, 1.110223024625e-16, -0, -0, -0, -0.009291622725517, 0.5006410585501, 0.5144990120097, 0.5006626500501, 0.5145058170445, 0.5006327389638, 0.514492206975
0.45, 0.04270131134084, 0, -0.01105579282035, -0.01105598884502, -0.03994787995937, 0, -0.0110548109046, -0.01105461492169, 0.06343149141368, 0.0007603423021205, 0, -107.8162405316, 246.3027789492, -107.6784688491, 246.5067887477, -126.1884123891, 21.18084778468, 128.8827492013, 21.20006480334, 18964.85164873, 18964.85164873, 10797.71035568, 5399.33063914, 5398.379716542, 18985.32318036, 18985.32318036, 10809.13983181, 5404.094454607, 5405.045377206, 0, 0.002834067538435, -0.07185695170633, -0, -0, -0, -0, -0.07258048807224, -0.07185695170633, 0.001979092517882, 0, 0, 0, 0, 0.0006258303719269, 0.0001793413244459, 0.001979094074309, 0.004069601016242, 0.0001793411834058, -0.003553761884107, 0.0001793411834058, 2.721954063118, 2.723920562518, 2.722155860791, 2.724140231167, 8.727524502968, -0.037337969184, 0, 0.04532022249077, 0, -0.9244333867826, 69.67623782426, 70, 69.67631974197, 8.72654182903, 3.726427004368, 8.727372419378, 3.727301141564, 8.727524502968, 8.726884976668, 3.726864073614, 8.726541820165, 3.726489357186, 8.727372382329, 3.727238790041, 0.02304826719526, -0.01428462756824, 0.0230484921144, 0.06836406828754, 0.0230484921144, 1.017852929057, 1.087299550757, -1.012213459328, -1.085700273433, 0.002834067538435, 0.002817446507737, 0.0007980282662824, 1.017817369055, 0.9322979528927, -1.012182408024, -0.9307018963602, -0, -0, 1.110223024625e-16, -0, -0.009305993270328, 0.5006310121515, 0.514488048419, 0.5006481092996, 0.5144909641017, 0.5006272202816, 0.5144851327364
0.475, 0.04426794700907, 0, -0.01107431945201, -0.01107450265943, -0.03856948065096, 0, -0.01107340173318, -0.01107321856218, 0.05917030552196, 0.0006421158717423, 0, -108.3704221725, 264.5373922344, -108.1554238571, 264.9394014989, -130.5080466365, 21.54281815503, 125.357264963, 21.54165523907, 18980.55878278, 18980.55878278, 10776.19833696, 5388.124252294, 5388.074084666, 18994.74126051, 18994.74126051, 10776.80131949, 5388.375575931, 5388.425743559, 0, 0.003072202323019, -0.071443179749, -0, -0, -0, -0, -0.07208248725561, -0.071443179749, 0.001550943657736, 0, 0, 0, 0, 0.0004221103407872, 9.461473415905e-06, 0.001550944863445, 0.004103515920713, 9.461466060527e-06, -0.003536521197559, 9.461466060527e-06, 2.872853498698, 2.875186408399, 2.873071371574, 2.875421861673, 9.211340121402, -0.03991945563746, 0, 0.04292711226806, 0, -0.9922488500103, 69.66484937581, 70, 69.66511097508, 9.210338461023, 4.210217384217, 9.211214696031, 4.211149677476, 9.211340121402, 9.210704266529, 4.210683530883, 9.210338451428, 4.210283884693, 9.211214659626, 4.211083177072, 0.02458188908938, -0.01533248089121, 0.02458190088706, 0.06750462488724, 0.02458190088706, 1.018094936017, 1.0874071379, -1.011971577338, -1.085592662107, 0.003072202323019, 0.003059168895057, 0.0009071529347297, 1.018059080817, 0.9324070672036, -1.011940677268, -0.9305927613341, -0, -0, -0, -0, -0.009326911912147, 0.5006181786078, 0.5145017858019, 0.5006320815907, 0.514501939624, 0.500617610005, 0.5145016319798
0.5, 0.04576258745378, 0, -0.01095308758765, -0.01095325444431, -0.03725548297314, 0, -0.0109522517661, -0.01095208493998, 0.0544725657823, 0.0004986007376443, 0, -109.0710884689, 283.8244650984, -108.8108828072, 284.4186057949, -135.0606502747, 21.38556699043, 121.5941799226, 21.37578891496, 18995.94562193, 18995.94562193, 10724.83856947, 5362.257665581, 5362.580903886, 19007.36578579, 19007.36578579, 10720.95345358, 5360.638345944, 5360.315107639, 0, 0.003316173937376, -0.07074249547426, -0, -0, -0, -0, -0.07126798367308, -0.07074249547426, 0.00142797281903, 0, 0, 0, 0, 0.0003208491727258, -6.096183267287e-05, 0.001427973907473, 0.004230260130615, -6.0961786206e-05, -0.003425256620918, -6.0961786206e-05, 3.023728318319, 3.026450240977, 3.023961234794, 3.026700776485, 9.695073521056, -0.04239964961055, 0, 0.04062764273808, 0, -1.057990529522, 69.65400900381, 70, 69.65432758755, 9.694057236822, 4.693930305672, 9.694975481454, 4.694916500968, 9.695073521056, 9.694443889677, 4.694423403071, 9.694057226248, 4.694000650693, 9.694975446654, 4.69484615545, 0.0260032184658, -0.01639124046803, 0.02600314319689, 0.06662666296983, 0.02600314319689, 1.018341064788, 1.087527733869, -1.011725563184, -1.085472042345, 0.003316173937376, 0.00330420191102, 0.001028393212644, 1.018304103297, 0.932528297281, -1.011695636049, -0.9304715108558, -0, -0, 1.110223024625e-16, -0, -0.009351418185989, 0.5006038735761, 0.5145291346877, 0.500616380654, 0.5145281435867, 0.5006047278955, 0.5145301257887
0.525, 0.04701103500006, 0, -0.01086417339764, -0.01086432365524, -0.03619297254431, 0, -0.01086342071808, -0.01086327048545, 0.04944508119637, 0.0003558377423492, 0, -109.7803061528, 304.3520165786, -109.4969647866, 305.1034464845, -139.4794818931, 21.11376079331, 117.9607347974, 21.10690523232, 19010.81729187, 19010.81729187, 10682.64858706, 5341.218312788, 5341.430274272, 19022.56615888, 19022.56615888, 10680.10094677, 5340.156454129, 5339.944492645, 0, 0.003564399280263, -0.070080840007, -0, -0, -0, -0, -0.07048944138034, -0.070080840007, 0.001586394521837, 0, 0, 0, 0, 0.0003095873722302, -3.997533747653e-05, 0.00158639570852, 0.004437321992402, -3.997530757348e-05, -0.003234185211902, -3.997530757348e-05, 3.174580517955, 3.177715993927, 3.17482734497, 3.177980629951, 10.17873431057, -0.04477537500666, 0, 0.03843793437574, 0, -1.121230840732, 69.6437479373, 70, 69.64397963245, 10.1777050277, 5.177572566904, 10.17866134559, 5.178608051551, 10.17873431057, 10.17811055536, 5.178090309056, 10.17770501588, 5.17764642781, 10.17866131317, 5.178534190303, 0.02730281110736, -0.01746716999733, 0.02730276221188, 0.06573681829527, 0.02730276221188, 1.018589823174, 1.08766078026, -1.011476924425, -1.085338973024, 0.003564399280263, 0.003551162525907, 0.001161262619771, 1.018551053676, 0.9326611568597, -1.011448667594, -0.9303386316202, -0, -0, 1.110223024625e-16, -0, -0.009377982053614, 0.5005885167228, 0.5145503189963, 0.5006012053438, 0.5145496690881, 0.5005892174077, 0.5145509689046
0.55, 0.04792501640133, 0, -0.01087261726718, -0.01087275155327, -0.03546847076465, 0, -0.01087194458712, -0.01087181032096, 0.0441490946924, 0.0002367701865382, 0, -110.3676246082, 326.0308914802, -110.0709269373, 326.8768364629, -143.3730509224, 21.02357932444, 114.8412571065, 21.02510525247, 19024.57860575, 19024.57860575, 10679.7246628, 5339.928789028, 5339.795873777, 19038.2966485, 19038.2966485, 10681.32221837, 5340.594651559, 5340.72756681, 0, 0.003813548231607, -0.06973589952315, -0, -0, -0, -0, -0.07004918682571, -0.06973589952315, 0.00190059755405, 0, 0, 0, 0, 0.0003466068917065, 2.506744092765e-05, 0.001900598961808, 0.004682547300817, 2.50674223604e-05, -0.00300574703383, 2.50674223604e-05, 3.32541213921, 3.328986472509, 3.325671656864, 3.329263951108, 10.66233149856, -0.04703908802659, 0, 0.03636381582732, 0, -1.181375304685, 69.63410329202, 70, 69.6341637034, 10.6612884902, 5.66115076817, 10.66227870539, 5.662230647127, 10.66233149856, 10.66171080167, 5.66169070776, 10.66128847695, 5.661227796003, 10.66227867567, 5.662153619517, 0.02847328249981, -0.01856014124053, 0.02847331300991, 0.0648334668201, 0.02847331300991, 1.018838552167, 1.087804593526, -1.011228323144, -1.08519513815, 0.003813548231607, 0.003797759834811, 0.001304502567354, 1.018797641249, 0.9328043875446, -1.011202063001, -0.9301953824098, 1.110223024625e-16, -0, -0, -0, -0.009404047854911, 0.5005734552038, 0.5145507533466, 0.5005871630163, 0.5145511608863, 0.5005731659964, 0.5145503458069
0.575, 0.04853064283223, 0, -0.01095760000058, -0.01095771834226, -0.03503165168951, 0, -0.0109570071854, -0.01095688885908, 0.03860321833766, 0.0001511490473027, 0, -110.7804606035, 348.3740409907, -110.4692239022, 349.2384782479, -146.4873297097, 21.18176058575, 112.4376073804, 21.18973194265, 19034.8719326, 19034.8719326, 10717.23373317, 5358.815213713, 5358.418519457, 19050.48331041, 19050.48331041, 10722.0017422, 5360.80252397, 5361.199218226, 0, 0.004059832971907, -0.06979193743141, -0, -0, -0, -0, -0.07003930897798, -0.06979193743141, 0.002209973434273, 0, 0, 0, 0, 0.0003824585858751, 7.481541638308e-05, 0.002209975073815, 0.004915644864932, 7.481536087882e-05, -0.002788143025124, 7.481536087882e-05, 3.476224899496, 3.480262957323, 3.476495802155, 3.480551822604, 11.14587095761, -0.04918030673423, 0, 0.03439155268355, 0, -1.237792708631, 69.62510635911, 70, 69.62500795599, 11.14481284524, 6.144670130127, 11.14583254606, 6.145789260993, 11.14587095761, 11.14524975264, 6.145229695906, 11.1448128305, 6.144749958031, 11.1458325189, 6.145709433781, 0.02950818230637, -0.0196661732947, 0.02950827343894, 0.06389636417969, 0.02950827343894, 1.019084351199, 1.087957245703, -1.010982642471, -1.085042466114, 0.004059832971907, 0.004041532263978, 0.001456717933478, 1.019041404634, 0.9329565943962, -1.010958284062, -0.9300431585293, -0, -0, -0, -0, -0.009424450576385, 0.5005619722639, 0.5145308072763, 0.500576659451, 0.5145320236051, 0.5005607307232, 0.5145295909474
0.6, 0.04893727565521, 0, -0.01100685388197, -0.01100695497615, -0.03473651268324, 0, -0.01100634746068, -0.01100624637766, 0.03282937742903, 9.241965486273e-05, 0, -111.0595360581, 370.6244841404, -110.7280777526, 371.4528590223, -148.7880051885, 21.41502653214, 110.6828759096, 21.4223999131, 19038.03522865, 19038.03522865, 10769.05594487, 5384.708898293, 5384.347046576, 19054.18571368, 19054.18571368, 10773.40516906, 5386.521658673, 5386.88351039, 0, 0.004300279065591, -0.07012772299463, -0, -0, -0, -0, -0.0703267967281, -0.07012772299463, 0.002387959919399, 0, 0, 0, 0, 0.0003802545665657, 6.824421252014e-05, 0.002387961708075, 0.00509866243293, 6.82441614026e-05, -0.002615758303542, 6.82441614026e-05, 3.627020071011, 3.631545734341, 3.62730096628, 3.631844465706, 11.6293551239, -0.05118822395702, 0, 0.03249527737921, 0, -1.289961288362, 69.61676950077, 70, 69.61659508348, 11.62828169816, 6.628134314584, 11.62932623368, 6.629287326327, 11.6293551239, 11.62873092586, 6.628710820781, 11.62828168201, 6.628216559189, 11.62932620859, 6.629205082372, 0.03040153160947, -0.02078049027478, 0.03040161513761, 0.06289363165605, 0.03040161513761, 1.019324958892, 1.088117378262, -1.010742113582, -1.084882315841, 0.004300279065591, 0.004280549446269, 0.001616918391651, 1.019280413643, 0.9331167872613, -1.010719261372, -0.929882950478, -0, -0, -0, -0, -0.009432288286635, 0.5005584600429, 0.5145044742053, 0.5005734314581, 0.5145055837012, 0.5005569528317, 0.5145033647093
0.625, 0.04927787635478, 0, -0.01091651532749, -0.01091659736441, -0.03442302798935, 0, -0.01091610436752, -0.010916022338, 0.026861912313, 4.42818248347e-05, 0, -111.2966546207, 392.1070788899, -110.9400875562, 392.8808023962, -150.4409590862, 21.46311654293, 109.3017681765, 21.46132453004, 19031.05020265, 19031.05020265, 10802.21312638, 5401.091082016, 5401.122044361, 19045.91302656, 19045.91302656, 10801.84097896, 5400.935970654, 5400.905008309, 0, 0.004533435792902, -0.07053300450371, -0, -0, -0, -0, -0.07068031294279, -0.07053300450371, 0.002383439437587, 0, 0, 0, 0, 0.0003263514438618, -5.839410970818e-06, 0.002383441243571, 0.005216889881124, -5.839406546172e-06, -0.002500470472981, -5.839406546172e-06, 3.777798650595, 3.782835091489, 3.778088067662, 3.783142230459, 12.11278487806, -0.05305325001058, 0, 0.03065747485624, 0, -1.337563111539, 69.60908115749, 70, 69.60891704818, 12.11169788148, 7.111546233535, 12.11276239765, 7.112727552494, 12.11278487806, 12.11215707593, 7.112136892986, 12.11169786406, 7.111630496939, 12.11276237408, 7.112643289033, 0.03114800254284, -0.0218988656549, 0.03114799535434, 0.06180242238439, 0.03114799535434, 1.01955921787, 1.088284514972, -1.010507869879, -1.084715163925, 0.004533435792902, 0.004513782006166, 0.001784727958947, 1.01951363906, 0.9332845903116, -1.010486024496, -0.9297151343937, -1.110223024625e-16, -0, -1.110223024625e-16, -0, -0.009421972954047, 0.500566242001, 0.5144887617078, 0.5005805589427, 0.5144886667723, 0.5005653943942, 0.5144888566434
0.65, 0.04965618046457, 0, -0.01061522464016, -0.01061528629495, -0.03398899350364, 0, -0.01061491578038, -0.01061485412991, 0.02076196465496, -1.05188193342e-05, 0, -111.563738296, 412.5284397285, -111.1809348028, 413.2643916816, -151.7178800204, 21.11308900867, 107.9677531171, 21.09587636551, 19013.63073622, 19013.63073622, 10799.92384297, 5399.614448523, 5400.309394442, 19025.67219705, 19025.67219705, 10791.57104137, 5396.132993646, 5395.438047727, 0, 0.00475935317156, -0.07086329050152, -0, -0, -0, -0, -0.07094097293099, -0.07086329050152, 0.002223634123269, 0, 0, 0, 0, 0.0002292720295404, -0.000131064840651, 0.002223635823982, 0.005277966119733, -0.0001310647404081, -0.002434549220589, -0.0001310647404081, 3.928561666035, 3.934132002446, 3.928858075405, 3.934446225806, 12.59616210356, -0.05476737948988, 0, 0.02888766091546, 0, -1.380497285638, 69.60201274492, 70, 69.60189088129, 12.59506462462, 7.59490917508, 12.5961441528, 7.596113072672, 12.59616210356, 12.59553137368, 7.595511123224, 12.5950646061, 7.594995048394, 12.59614413029, 7.596027198054, 0.0317434913618, -0.02301740239117, 0.03174332926114, 0.06062816325673, 0.03174332926114, 1.019787020817, 1.088458923157, -1.010280018133, -1.084540743354, 0.00475935317156, 0.004741055692434, 0.001960266807773, 1.019740906761, 0.933460123846, -1.010258747794, -0.9295395902304, -0, -0, -0, -0, -0.009392508682019, 0.5005854606537, 0.5144919655894, 0.5005983338595, 0.5144898347727, 0.5005860483266, 0.5144940964061
0.675, 0.05011444597022, 0, -0.01009600272352, -0.01009604395716, -0.03342584762001, 0, -0.01009579616137, -0.01009575492976, 0.01460062893465, -8.223738695835e-05, 0, -111.8692112912, 432.0389419417, -111.4638444837, 432.7696099538, -152.8873704934, 20.30599234892, 106.4542478282, 20.27147962408, 18988.89408441, 18988.89408441, 10771.87359298, 5385.195471455, 5386.678121524, 18997.45370851, 18997.45370851, 10754.05309571, 5377.767872887, 5376.285222819, 0, 0.004979033336724, -0.07112367635947, -0, -0, -0, -0, -0.07111545943331, -0.07112367635947, 0.001987985793819, 0, 0, 0, 0, 0.0001143881690214, -0.0002796236236372, 0.001987987325494, 0.005306557426683, -0.0002796234081969, -0.002396447459826, -0.0002796234081969, 4.0793103885, 4.085438025955, 4.079612228507, 4.085758152389, 13.07949108256, -0.0563229764422, 0, 0.02722717740081, 0, -1.418823973842, 69.59553285524, 70, 69.59541995215, 13.07838619271, 8.078227420351, 13.07947576406, 8.079448076684, 13.07949108256, 13.0788580548, 8.078837747107, 13.07838617319, 8.078314488306, 13.07947574235, 8.079361005908, 0.03218555639872, -0.02413087632852, 0.03218520929016, 0.05940977990892, 0.03218520929016, 1.02000892806, 1.088641157145, -1.010058024911, -1.084358500036, 0.004979033336724, 0.004962715528335, 0.00214383953634, 1.01996256186, 0.9336436925581, -1.010037086256, -0.9293560134854, 1.110223024625e-16, -0, -0, -0, -0.009348774744074, 0.5006124868773, 0.5145086921651, 0.5006235753177, 0.5145041461199, 0.5006148427167, 0.5145132382103
0.7, 0.0505772193209, 0, -0.009381420677103, -0.009381442866278, -0.03283457828627, 0, -0.009381309518072, -0.009381287329528, 0.008457051012793, -0.0001720000987676, 0, -112.161537815, 451.0314531631, -111.7413249521, 451.8008223968, -154.1039804485, 19.09818719074, 104.7296034075, 19.04957617113, 18962.26389327, 18962.26389327, 10745.38052691, 5371.580685506, 5373.799841401, 18967.67213241, 18967.67213241, 10718.70770476, 5360.463430327, 5358.244274432, 0, 0.005193675373441, -0.07143145368458, -0, -0, -0, -0, -0.07133688181411, -0.07143145368458, 0.001769148781603, 0, 0, 0, 0, 1.089443065082e-05, -0.0004185265493528, 0.001769150156494, 0.005326477464703, -0.0004185262240957, -0.002364909182123, -0.0004185262240957, 4.230046304977, 4.236754566887, 4.230352007641, 4.237079516104, 13.56277786965, -0.05766024898088, 0, 0.02576137740385, 0, -1.452676840572, 69.58961973563, 70, 69.58945767487, 13.56166749761, 8.56150595503, 13.56276237865, 8.56273753138, 13.56277786965, 13.56214212662, 8.562121741075, 13.56166747715, 8.56159380119, 13.56276235765, 8.56264968096, 0.03247366066386, -0.02517999266894, 0.03247313888106, 0.05823210967671, 0.03247313888106, 1.020225579714, 1.08883169842, -1.009841271662, -1.084167952631, 0.005193675373441, 0.005179193989735, 0.002335631320465, 1.020179036938, 0.9338354816872, -1.009820607314, -0.9291642190462, -0, -0, -0, -0, -0.009299878536125, 0.5006412785276, 0.5145244672741, 0.5006507489659, 0.5145176629827, 0.5006452320915, 0.5145312715655
0.725, 0.05110831211315, 0, -0.008545842958333, -0.008545848679821, -0.03224144305315, 0, -0.008545814295635, -0.008545808574193, 0.00239664671786, -0.0002736978800318, 0, -112.3834767875, 469.8063030902, -111.9591187858, 470.6490995734, -155.421065267, 17.62569148285, 102.9317312678, 17.56944113109, 18939.11003558, 18939.11003558, 10745.56622333, 5371.396881227, 5374.1693421, 18942.45537188, 18942.45537188, 10712.24303232, 5357.507746596, 5354.735285723, 0, 0.005404013769866, -0.07189325319734, -0, -0, -0, -0, -0.07172894033965, -0.07189325319734, 0.001636558706698, 0, 0, 0, 0, -6.011732777254e-05, -0.0005228783144642, 0.001636559995045, 0.005370557974183, -0.0005228779028393, -0.002315584080329, -0.0005228779028393, 4.380770889376, 4.388082106705, 4.381078900617, 4.38841082198, 14.04602822926, -0.05890521910287, 0, 0.02445434135336, 0, -1.482178467471, 69.58426464569, 70, 69.58402823017, 14.04491354747, 9.044749537054, 14.04600876784, 9.045986244243, 14.04602822926, 14.04538840024, 9.045367887976, 14.04491352593, 9.044837748654, 14.04600874769, 9.045898027298, 0.03260908050183, -0.02628944626805, 0.0326084244079, 0.05706053553262, 0.0326084244079, 1.020437422721, 1.08903059939, -1.009629384815, -1.08396904878, 0.005404013769866, 0.005390651711637, 0.002535470838831, 1.020390492555, 0.9340353199424, -1.009609150425, -0.9289643782648, -0, -0, -0, -0, -0.00925549931596, 0.500665961982, 0.514526069046, 0.5006743753152, 0.514517568232, 0.5006709634974, 0.51453456986
0.75, 0.05148178209229, 0, -0.007667991793755, -0.007667984216692, -0.03183981209179, 0, -0.007668029752621, -0.007668037329774, -0.003526723632069, -0.0003773851269328, 0, -112.5235997279, 488.3050090103, -112.1041148493, 489.224377146, -156.7380954196, 16.02782755169, 101.2703873052, 15.97020444049, 18922.79330668, 18922.79330668, 10777.28477409, 5387.083189215, 5390.201584876, 18925.35168755, 18925.35168755, 10739.80367011, 5371.461032887, 5368.342637225, 0, 0.005609957612685, -0.07249421294572, -0, -0, -0, -0, -0.0722832204604, -0.07249421294572, 0.00161465398684, 0, 0, 0, 0, -9.200204869908e-05, -0.000588120649261, 0.001614655279282, 0.005431299527851, -0.0005881201785029, -0.002252971050542, -0.0005881201785029, 4.53148535007, 4.539420036897, 4.531794142812, 4.539751407044, 14.52924576462, -0.05990435466562, 0, 0.02342702785105, 0, -1.507387431073, 69.57946354465, 70, 69.57919251123, 14.52812775639, 9.527961849333, 14.52921892402, 9.529198004101, 14.52924576462, 14.52860060736, 9.528579923713, 14.52812773377, 9.528050021197, 14.52921890477, 9.529109826228, 0.03259460276948, -0.02730292795961, 0.03259385864256, 0.05601879873614, 0.03259385864256, 1.020644099492, 1.089237273362, -1.009422695183, -1.083762375147, 0.005609957612685, 0.005596796825446, 0.002742730372699, 1.020596636962, 0.9342425796008, -1.009403007241, -0.9287571188554, 1.110223024625e-16, -0, -0, -1.110223024625e-16, -0.009222396768882, 0.5006830148323, 0.5145109467984, 0.5006910249885, 0.5145013852922, 0.5006884162583, 0.5145205083045
0.775, 0.05177986802983, 0, -0.00679260899494, -0.006792591378857, -0.03156734256208, 0, -0.006792697247207, -0.006792714863839, -0.009261806069976, -0.0004738139368107, 0, -112.6322515415, 506.1774483458, -112.2270446058, 507.1418437387, -157.8890574067, 14.39029135239, 99.95787866911, 14.33513355892, 18913.96997982, 18913.96997982, 10822.47171192, 5409.573037784, 5412.898674132, 18916.83926253, 18916.83926253, 10782.49970859, 5392.912672468, 5389.58703612, 0, 0.00581065197255, -0.07307854451134, -0, -0, -0, -0, -0.07283522340812, -0.07307854451134, 0.001683547834154, 0, 0, 0, 0, -9.102083028986e-05, -0.0006272056678917, 0.001683549203554, 0.005514722529333, -0.0006272051577223, -0.00217263679143, -0.0006272051577223, 4.682190540925, 4.69076731236, 4.682498622616, 4.691100143395, 15.01243156599, -0.06079280075823, 0, 0.02256417298682, 0, -1.528299316544, 69.57520458679, 70, 69.57498722709, 15.01131276293, 10.01114533197, 15.01239519208, 10.01237540442, 15.01243156599, 15.01178122229, 10.01176036501, 15.01131273909, 10.0112330698, 15.01239517385, 10.01228766022, 0.03243428547342, -0.02835153106241, 0.03243348549713, 0.05499570566416, 0.03243348549713, 1.020844972716, 1.089450603227, -1.009221853889, -1.083549048749, 0.00581065197255, 0.005796939623793, 0.002956409239031, 1.020796780311, 0.9344562599399, -1.009202867631, -0.9285434414619, -1.110223024625e-16, -0, -0, -0, -0.009202917121533, 0.5006918568869, 0.514488527668, 0.5007000283136, 0.5144783307284, 0.5006971024334, 0.5144987246076
0.8, 0.05183485310263, 0, -0.005940661060166, -0.005940636503583, -0.03149785823455, 0, -0.005940784083784, -0.005940808641588, -0.01476319732891, -0.0005580535812106, 0, -112.8004161322, 523.0953108454, -112.4150372222, 524.0597705774, -158.7344380719, 12.74038703765, 99.09524411454, 12.68929815243, 18911.5903673, 18911.5903673, 10853.94956884, 5425.235863484, 5428.713705357, 18915.31130015, 18915.31130015, 10812.1481533, 5407.812997585, 5404.335155712, 0, 0.006004826016592, -0.07343541737747, -0, -0, -0, -0, -0.07315587431716, -0.07343541737747, 0.001795777378542, 0, 0, 0, 0, -7.227128947838e-05, -0.0006559112073774, 0.001795778853531, 0.005591631343783, -0.0006559106686353, -0.002094795834526, -0.0006559106686353, 4.832887099388, 4.842123472222, 4.833193020264, 4.842456521069, 15.49558563187, -0.06142026400564, 0, 0.02192213924996, 0, -1.54488908171, 69.57146241936, 70, 69.57138211088, 15.49447008505, 10.49430181704, 15.49553963814, 10.49552047766, 15.49558563187, 15.49493211905, 10.49491114405, 15.49447006008, 10.49438874075, 15.49553962087, 10.49543354734, 0.03213342856253, -0.02927971930977, 0.03213258788805, 0.05405290090324, 0.03213258788805, 1.021038910133, 1.089669261627, -1.009027914782, -1.083330396791, 0.006004826016592, 0.005990202829657, 0.003175322000629, 1.020990045396, 0.9346751754526, -1.009009608704, -0.9283245314514, -1.110223024625e-16, -0, -1.110223024625e-16, -0, -0.009195940452513, 0.5006938513411, 0.5144729342208, 0.5007024564245, 0.5144622705944, 0.500698661604, 0.5144835978473
0.825, 0.05179763844626, 0, -0.005105732462708, -0.005105703884341, -0.03160230618233, 0, -0.005105875635926, -0.005105904216216, -0.01999003700114, -0.0006285659877316, 0, -113.0973199229, 539.026960224, -112.7351900196, 539.9484877541, -159.1980578113, 11.08612591657, 98.6832358402, 11.03917042515, 18914.28728203, 18914.28728203, 10854.53624368, 5425.438116933, 5429.098126743, 18918.8717377, 18918.8717377, 10810.54528706, 5407.102648434, 5403.442638624, 0, 0.006191218855129, -0.07343083921399, -0, -0, -0, -0, -0.07309622252931, -0.07343083921399, 0.00189848448805, 0, 0, 0, 0, -5.165526267902e-05, -0.0006902675684407, 0.001898486047204, 0.005658431787656, -0.0006902670015503, -0.002034053735613, -0.0006902670015503, 4.983575720968, 4.993489273663, 4.983878083581, 4.993821316394, 15.97870909294, -0.06192217475179, 0, 0.02148734440107, 0, -1.557159477421, 69.56820329865, 70, 69.56828555841, 15.97760217025, 10.97743354582, 15.97865467471, 10.978635706, 15.97870909294, 15.97805562121, 10.97803462248, 15.97760214418, 10.97751929243, 15.97865465821, 10.97854995253, 0.03169840329079, -0.03021657057907, 0.03169751863728, 0.0531831584372, 0.03169751863728, 1.021225056218, 1.089891902353, -1.008841829547, -1.083107765271, 0.006191218855129, 0.006175762414476, 0.003398266620949, 1.021175607991, 0.9348981240063, -1.008824054413, -0.9281015907644, -1.110223024625e-16, -0, -0, -0, -0.009199145717114, 0.5006906535085, 0.5144731934497, 0.5006997044134, 0.5144619712669, 0.5006950285236, 0.5144844156325
0.85, 0.05162767728989, 0, -0.00427014492144, -0.004270115133406, -0.03170495403646, 0, -0.004270294156138, -0.004270323946669, -0.02491211704849, -0.0006865943250367, 0, -113.5305234869, 554.2853721649, -113.191610375, 555.1382049149, -159.2836592756, 9.423271100512, 98.66111667128, 9.380116939927, 18921.48618185, 18921.48618185, 10828.1815091, 5412.128987769, 5416.052521334, 18926.53298186, 18926.53298186, 10781.02316696, 5392.473350264, 5388.549816699, 0, 0.006368928836436, -0.07309354173206, -0, -0, -0, -0, -0.07268281571923, -0.07309354173206, 0.001952677863501, 0, 0, 0, 0, -4.137650317085e-05, -0.0007399674028233, 0.001952679452464, 0.005696095524106, -0.0007399668006864, -0.001989535112565, -0.0007399668006864, 5.134257385166, 5.144866499054, 5.134554854787, 5.145196405354, 16.46180569493, -0.0622242495318, 0, 0.0211177760996, 0, -1.565180033835, 69.56539689634, 70, 69.56559241314, 16.46071225118, 11.46054386552, 16.46174367363, 11.46172471223, 16.46180569493, 16.46115521984, 11.46113428526, 16.46071222418, 11.46062809165, 16.46174365777, 11.46164047887, 0.03113648755891, -0.0310805461391, 0.03113554356576, 0.05225174270903, 0.03113554356576, 1.021402665012, 1.090117361552, -1.008664170378, -1.082882317783, 0.006368928836436, 0.006353038693125, 0.003624166415645, 1.021352888377, 0.9351240288007, -1.008646784554, -0.9278756959694, -0, 1.110223024625e-16, -0, 1.110223024625e-16, -0.009210757660778, 0.5006830777749, 0.5144874477438, 0.5006923585646, 0.5144754175545, 0.5006872109412, 0.5144994779331
0.875, 0.05138724095739, 0, -0.003405591036263, -0.003405562895339, -0.03188456321407, 0, -0.003405732020217, -0.003405760163937, -0.02950782371866, -0.0007354487249058, 0, -114.0347975243, 569.3533876326, -113.718100192, 570.1263796429, -159.07759876, 7.744962582703, 98.93298380695, 7.705478041075, 18933.00182054, 18933.00182054, 10796.38152269, 5396.0378645, 5400.343658194, 18937.93938501, 18937.93938501, 10744.62866042, 5374.467227057, 5370.161433363, 0, 0.006537629594578, -0.07259978565257, -0, -0, -0, -0, -0.07210386502524, -0.07259978565257, 0.001946053959849, 0, 0, 0, 0, -4.582350027252e-05, -0.0008120605798747, 0.0019460555221, 0.005701610224724, -0.0008120599279705, -0.001977539260097, -0.0008120599279705, 5.284933384692, 5.296257095479, 5.285224697309, 5.296583884276, 16.94488159547, -0.06233921206885, 0, 0.02094178982613, 0, -1.569105388129, 69.5630265363, 70, 69.5632407351, 16.94380480099, 11.94363717037, 16.94481158838, 11.94479218834, 16.94488159547, 16.94423550513, 11.94421467548, 16.94380477327, 11.94371955387, 16.94481157288, 11.94470979708, 0.03045554259355, -0.03187649515153, 0.03045451362757, 0.05139484344336, 0.03045451362757, 1.021571484879, 1.090344694155, -1.008495304583, -1.082654999099, 0.006537629594578, 0.006521806457412, 0.003852139665588, 1.021521661222, 0.9353520079857, -1.008478023988, -0.9276477286545, -1.110223024625e-16, -0, -0, -0, -0.009229660164983, 0.5006713885109, 0.5145048442894, 0.5006806079082, 0.5144916420286, 0.5006755717579, 0.5145180465501
0.9, 0.05118212527961, 0, -0.002486682701409, -0.002486659194647, -0.03208985940313, 0, -0.002486800469394, -0.002486823978827, -0.03375633024029, -0.0007804693337909, 0, -114.5156106459, 584.5732199082, -114.2208141014, 585.2893557422, -158.7214909554, 6.004556237259, 99.41537998057, 5.969917615122, 18947.7714402, 18947.7714402, 10782.99976777, 5389.122063568, 5393.877704198, 18952.23539654, 18952.23539654, 10725.84003555, 5365.297838089, 5360.542197459, 0, 0.006697569035443, -0.07216881225106, -0, -0, -0, -0, -0.07159538598016, -0.07216881225106, 0.001894599159598, 0, 0, 0, 0, -5.944511744806e-05, -0.0008969004381564, 0.001894600662537, 0.00568743545214, -0.0008968997266677, -0.00199097503703, -0.0008968997266677, 5.435605147287, 5.447662230595, 5.435889117632, 5.447985097539, 17.42794364531, -0.06233921973931, 0, 0.02094179240237, 0, -1.569175248487, 69.56109159217, 70, 69.56123901955, 17.42688469679, 12.42671814131, 17.42786343867, 12.42784313584, 17.42794364531, 17.42730137788, 12.42728063441, 17.42688466846, 12.42679838296, 17.42786342331, 12.42776288586, 0.02966401104519, -0.03266809451518, 0.0296628813246, 0.05060331222473, 0.0296628813246, 1.021731738716, 1.090573327308, -1.008335056001, -1.082426381745, 0.006697569035443, 0.006682179801628, 0.004081526892132, 1.021682040422, 0.9355814019436, -1.008317658504, -0.9274183481593, -0, -0, -0, -0, -0.009254080692841, 0.5006565597563, 0.5145130510075, 0.5006655368801, 0.5144984694432, 0.500660983987, 0.5145276325719
0.925, 0.0509546511159, 0, -0.001519762759199, -0.001519746740203, -0.03225918596878, 0, -0.001519843014287, -0.001519859035313, -0.03763943528147, -0.0008267952142316, 0, -114.9005963533, 599.9050966633, -114.6300751842, 600.5948290565, -158.2938833699, 4.182725919095, 99.91893825603, 4.155094821213, 18963.28697236, 18963.28697236, 10797.91687689, 5396.354677863, 5401.562199029, 18967.24726779, 18967.24726779, 10735.32583216, 5370.266676666, 5365.059155499, 0, 0.006849343674018, -0.07194394211306, -0, -0, -0, -0, -0.07131175373912, -0.07194394211306, 0.001831706066134, 0, 0, 0, 0, -7.258402169464e-05, -0.0009821238306069, 0.001831707510141, 0.005657547806678, -0.0009821230563602, -0.00201509231017, -0.0009821230563602, 5.586273977521, 5.599081911524, 5.586549506963, 5.599400202897, 17.91099739744, -0.06216074728966, 0, 0.02106198359466, 0, -1.565684030861, 69.55959915645, 70, 69.55964613778, 17.90995594924, 12.90979084869, 17.9109035643, 12.91088196308, 17.91099739744, 17.91035711754, 12.91033640146, 17.90995592043, 12.90986867341, 17.91090354899, 12.91080412951, 0.02877079242749, -0.03338290007918, 0.02876955921551, 0.04983026232272, 0.02876955921551, 1.021883781987, 1.090802810693, -1.008182975217, -1.08219691569, 0.006849343674018, 0.006834479242766, 0.004311766806472, 1.021834346423, 0.935811649241, -1.008165367518, -0.927188115628, -0, -1.110223024625e-16, 1.110223024625e-16, -1.110223024625e-16, -0.009280194450995, 0.5006409895954, 0.5145068257639, 0.5006497047304, 0.5144908586607, 0.5006456657436, 0.5145227928672
0.95, 0.05074685161469, 0, -0.0005294155062373, -0.000529409407524, -0.03241362210708, 0, -0.0005294460609389, -0.0005294521604967, -0.0411368249008, -0.0008734631590239, 0, -115.1733278842, 614.9689545969, -114.9314920256, 615.6490715477, -157.7899969139, 2.291307983666, 100.4705721489, 2.273063032589, 18975.62785414, 18975.62785414, 10831.08665613, 5412.735474307, 5418.351181827, 18979.4879472, 18979.4879472, 10763.58947478, 5384.602591151, 5378.986883631, 0, 0.006993582214194, -0.07193382931167, -0, -0, -0, -0, -0.07126065229693, -0.07193382931167, 0.001791881489848, 0, 0, 0, 0, -7.299171880558e-05, -0.001059106627442, 0.001791882902063, 0.005629507637806, -0.001059105792742, -0.002038156739734, -0.001059105792742, 5.736940888053, 5.75051544076, 5.737206972268, 5.750828605075, 18.39404608739, -0.0618613679415, 0, 0.02130791373591, 0, -1.558942338591, 69.55855083157, 70, 69.55852076997, 18.39302165403, 13.39285827224, 18.39393530228, 13.39391200531, 18.39404608739, 18.39340588536, 13.39338513416, 18.39302162478, 13.39293343036, 18.39393528702, 13.39383683796, 0.02778525045049, -0.03406909865621, 0.02778392076136, 0.04909062207513, 0.02778392076136, 1.022028110429, 1.09103262576, -1.008038617562, -1.081967119122, 0.006993582214194, 0.006979046869494, 0.004542263626845, 1.021978921118, 0.9360421539474, -1.008020808772, -0.9269576266937, -0, 1.110223024625e-16, -1.110223024625e-16, -1.110223024625e-16, -0.009302058357508, 0.5006284523332, 0.5144911539603, 0.500637112018, 0.5144739352916, 0.5006331752473, 0.514508372629
