Time,Alpha_L1,Alpha_L2,Alpha_R1,Alpha_R2,AVz,Ay,Bk_Stat,Fx_L1,Fx_L2,Fx_R1,Fx_R2,Fy_L1,Fy_L2,Fy_R1,Fy_R2,Fz_L1,Fz_L2,Fz_R1,Fz_R2,GearStat,Lat_Targ,Lat_Veh,Pitch,PitchGL1,PitchGL2,PitchGR1,PitchGR2,PitchO1,Roll,RollGL1,RollGL2,RollGR1,RollGR2,RollO_1,Roll_E,Roll_L1,Roll_L2,Roll_R1,Roll_R2,Rot_L1,Rot_L2,Rot_R1,Rot_R2,Station,Steer_L1,Steer_R1,Steer_SW,VisO_1,Vx,VxTarget,Vxz_Fwd,Xctc_L1,Xctc_L2,Xctc_R1,Xctc_R2,Xo,X_L1,X_L2,X_Obj_1,X_R1,X_R2,Yaw,YawO_1,Yaw_L1,Yaw_L2,Yaw_R1,Yaw_R2,Yctc_L1,Yctc_L2,Yctc_R1,Yctc_R2,Yo,Y_L1,Y_L2,Y_Obj_1,Y_R1,Y_R2,Zgnd_L1,Zgnd_L2,Zgnd_R1,Zgnd_R2,Zo,Z_L1,Z_L2,Z_Obj_1,Z_R1,Z_R2
            0, 8.3638332774e-18,             0, -8.3638332774e-18,             0,             0, 1.93259958001e-20,             0, -2.62932384198e-11,             0, -2.62932384198e-11,             0, -3.29522234563e-19,             0, 3.29522234563e-19,             0, 4705.65869141, 2654.82568359, 4705.65869141, 2654.82568359,             6,             0,             0, 0.15066960454,             0,             0,             0,             0,             0,             0,             0,             0,             0,             0,             0,             0, 3.18054370716e-15,             0, -3.18054370716e-15,             0, 0.000418526673457, 0.000418526673457, 0.000418526673457, 0.000418526673457,             0,             0,             0,             0,             1,           120,           120,           120, 0.000854645215441, -2.90913534164, 0.000854645215441, -2.90913534164,             0, 0.000854645215441, -2.90913534164, 16.6666660309, 0.000854645215441, -2.90913534164,             0,             0, -3.19527085726e-15,             0, 3.19527085726e-15,             0, 0.837499976158, 0.837499976158, -0.837499976158, -0.837499976158,             0, 0.837499976158, 0.837499976158,             0, -0.837499976158, -0.837499976158,             0,             0,             0,             0, -0.00855730380863, 0.316441565752, 0.324093937874,             0, 0.316441565752, 0.324093937874
        0.025, -0.000416770635638, 0.000309486931656, 0.000416770635638, -0.000309486931656, -7.75004706491e-18, 1.59072311866e-19,             0, -29.3096828461, -14.5853719711, -29.3096828461, -14.5853719711, 0.346608757973, -0.19220790267, -0.346608757973, 0.19220790267, 4687.87548828, 2659.39770508, 4687.87548828, 2659.39770508,             6,             0, -7.75733451965e-21, 0.147930651903,             0,             0,             0,             0,             0, -8.31456567633e-19,             0,             0,             0,             0,             0, -8.31459307669e-19, -0.000505992618855, 0.000366784835933, 0.000505992618855, -0.000366784835933, 0.40838560462, 0.408398389816, 0.40838560462, 0.408398389816, 0.833254039288, 0.000234777835431, -0.000234777835431, 5.23766317773e-19,             1, 119.969467163,           120, 119.969047546, 0.834090530872, -2.07589817047, 0.834090530872, -2.07589817047, 0.833254039288, 0.834090530872, -2.07589817047, 17.4956226349, 0.834090530872, -2.07589817047, -6.70473668886e-21,             0, 0.000236085033976, -0.000116457980766, -0.000236085033976, 0.000116457980766, 0.837498366833, 0.837501943111, -0.837498366833, -0.837501943111, -7.75733451965e-21, 0.837501168251, 0.837499856949,             0, -0.837501168251, -0.837499856949,             0, -5.55111512313e-17,             0, -5.55111512313e-17, -0.00844954978675, 0.316507935524, 0.324076861143,             0, 0.316507935524, 0.324076861143
         0.05, -0.00135955680162, 0.000779378577136, 0.00135955680162, -0.000779378577136, 2.48979317106e-18, 5.27015379821e-19,             0, -38.3646202087, -14.7300815582, -38.3646202087, -14.7300815582, 1.29246270657, -0.552982449532, -1.29246270657, 0.552982449532, 4637.89306641, 2669.24169922, 4637.89306641, 2669.24169922,             6,             0, -7.95394388058e-20, 0.140965566039,             0,             0,             0,             0,             0, -9.62795467774e-18,             0,             0,             0,             0,             0, -9.62798362906e-18, -0.0017528772587, 0.00111492199358, 0.0017528772587, -0.00111492199358, 0.816214621067, 0.816256225109, 0.816214621067, 0.816256225109, 1.66632604599, 0.000948923872784, -0.000948923872784, 3.96366172536e-18,             1, 119.937217712,           120, 119.936546326, 1.66712105274, -1.24286556244, 1.66712105274, -1.24286556244, 1.66632604599, 1.66712105274, -1.24286556244, 18.3241786957, 1.66712105274, -1.24286556244, 5.79231155989e-20,             0, 0.000953239388764, -0.000425554986577, -0.000953239388764, 0.000425554986577, 0.837494254112, 0.837505817413, -0.837494254112, -0.837505817413, -7.95394388058e-20, 0.837503969669, 0.837499499321,             0, -0.837503969669, -0.837499499321, -5.55111512313e-17,             0, -5.55111512313e-17,             0, -0.008161672391, 0.316694438457, 0.324040144682,             0, 0.316694438457, 0.324040144682
        0.075, -0.00294332881458, 0.0013125045225, 0.00294332881458, -0.0013125045225, 1.72862616225e-17, -7.85274350251e-19,             0, -47.4814758301, -14.3686008453, -47.4814758301, -14.3686008453, 3.12415242195, -1.00772929192, -3.12415242195, 1.00772929192, 4583.73388672, 2672.19555664, 4583.73388672, 2672.19555664,             6,             0, -1.81064627435e-19,  0.1321695894,             0,             0,             0,             0,             0, -2.35476383564e-17,             0,             0,             0,             0,             0, -2.35477012221e-17, -0.00412421720102, 0.00216723978519, 0.00412421720102, -0.00216723978519, 1.22390079498, 1.22400701046, 1.22390079498, 1.22400701046, 2.49918651581, 0.00225512427278, -0.00225512427278, 5.62828826186e-18,             1,  119.90385437,           120, 119.903160095, 2.49992847443, -0.410054683685, 2.49992847443, -0.410054683685, 2.49918651581, 2.49992847443, -0.410054683685, 19.1524028778, 2.49992847443, -0.410054683685, 3.25306250077e-19,             0, 0.00226464401931, -0.000935979012866, -0.00226464401931, 0.000935979012866, 0.837486386299, 0.837511360645, -0.837486386299, -0.837511360645, -1.81064627435e-19, 0.837509214878, 0.837499082088,             0, -0.837509214878, -0.837499082088,             0,             0,             0,             0, -0.00776686891913, 0.316896528006, 0.324029117823,             0, 0.316896528006, 0.324029117823
          0.1, -0.00498784752563, 0.00139284296893, 0.00498784752563, -0.00139284296893, -1.47370117429e-17, 7.25519339788e-19,             0, -52.8677711487, -14.0513114929, -52.8677711487, -14.0513114929,  5.7956237793, -1.25309634209, -5.7956237793, 1.25309634209, 4545.59277344, 2664.19091797, 4545.59277344, 2664.19091797,             6,             0, -2.37482726683e-19, 0.123963683844,             0,             0,             0,             0,             0, -3.19809167549e-17,             0,             0,             0,             0,             0, -3.19809928556e-17, -0.00750475702807, 0.00294697657228, 0.00750475702807, -0.00294697657228, 1.63144373894, 1.63164365292, 1.63144373894, 1.63164365292, 3.33180689812, 0.00409412523732, -0.00409412523732, 1.06969805675e-17,             1, 119.869659424,           120, 119.869102478,   3.332498312, 0.422519385815,   3.332498312, 0.422519385815, 3.33180689812,   3.332498312, 0.422519385815, 19.9802932739,   3.332498312, 0.422519385815, 2.24181920927e-19,             0, 0.00411037169397, -0.00123688264284, -0.00411037169397, 0.00123688264284, 0.837475061417, 0.837515413761, -0.837475061417, -0.837515413761, -2.37482726683e-19, 0.837516546249, 0.837498724461,             0, -0.837516546249, -0.837498724461,             0, -5.55111512313e-17,             0, -5.55111512313e-17, -0.00735045131296, 0.317038834095, 0.32405897975,             0, 0.317038834095, 0.32405897975
        0.125, -0.00720255961642, 0.00110761530232, 0.00720255961642, -0.00110761530232, -4.87091623362e-17, 4.38924118743e-18,             0, -53.8702964783, -13.8941774368, -53.8702964783, -13.8941774368, 8.95221042633, -1.11266088486, -8.95221042633, 1.11266088486, 4529.61279297,  2650.6496582, 4529.61279297,  2650.6496582,             6,             0, -5.2540439388e-19, 0.117596380413,             0,             0,             0,             0,             0, -6.51794235192e-17,             0,             0,             0,             0,             0, -6.51795624856e-17, -0.0114122545347, 0.00291191902943, 0.0114122545347, -0.00291191902943, 2.03885483742, 2.03916120529, 2.03885483742, 2.03916120529, 4.16417217255, 0.00622733356431, -0.00622733356431, 4.29851287456e-17,             1, 119.835128784,           120, 119.834754944, 4.16482305527, 1.25484788418, 4.16482305527, 1.25484788418, 4.16417217255, 4.16482305527, 1.25484788418,  20.807888031, 4.16482305527, 1.25484788418, -5.81912151752e-19,             0, 0.00625076936558, -0.00129484420177, -0.00625076936558, 0.00129484420177, 0.837461709976, 0.837515234947, -0.837461709976, -0.837515234947, -5.2540439388e-19,  0.8375248909, 0.837498784065,             0, -0.8375248909, -0.837498784065,             0, 5.55111512313e-17,             0, 5.55111512313e-17, -0.00697512226179, 0.317098468542, 0.324109524488,             0, 0.317098468542, 0.324109524488
         0.15, -0.00931115634739, 0.000415423797676, 0.00931115634739, -0.000415423797676, -6.60150744613e-17, 2.26134751665e-17,             0, -51.189868927, -13.9114294052, -51.189868927, -13.9114294052, 12.1751737595, -0.638349235058, -12.1751737595, 0.638349235058, 4531.54785156, 2640.03930664, 4531.54785156, 2640.03930664,             6,             0, -1.43183599185e-18, 0.113020770252,             0,             0,             0,             0,             0, -1.69936646787e-16,             0,             0,             0,             0,             0, -1.6993697766e-16, -0.0153169706464, 0.00200805789791, 0.0153169706464, -0.00200805789791, 2.44614839554, 2.44655823708, 2.44614839554, 2.44655823708, 4.99628210068, 0.00836780667305, -0.00836780667305, 1.29352743951e-16,             1, 119.800727844,           120, 119.800476074, 4.99690294266, 2.08693027496, 4.99690294266, 2.08693027496, 4.99628210068, 4.99690294266, 2.08693027496, 21.6352367401, 4.99690294266, 2.08693027496, -2.19105110258e-18,             0, 0.0083980364725, -0.00086321280105, -0.0083980364725, 0.00086321280105, 0.837448179722, 0.83751052618, -0.837448179722, -0.83751052618, -1.43183599185e-18, 0.837532997131, 0.837499141693,             0, -0.837532997131, -0.837499141693,             0,             0,             0,             0, -0.0066680717282, 0.317091226578, 0.324149101973,             0, 0.317091226578, 0.324149101973
        0.175, -0.0111549338326, -0.000191133527551, 0.0111549338326, 0.000191133527551, 6.39364609027e-16, 5.87399746517e-17,             0, -46.0085868835, -14.0546627045, -46.0085868835, -14.0546627045, 15.1241493225, -0.0507702231407, -15.1241493225, 0.0507702231407, 4542.87158203, 2637.31689453, 4542.87158203, 2637.31689453,             6,             0, -2.891161677e-18, 0.109499953687,             0,             0,             0,             0,             0, -3.63071064311e-16,             0,             0,             0,             0,             0, -3.63071726055e-16, -0.0188489854336, 0.000665407278575, 0.0188489854336, -0.000665407278575, 2.85333776474, 2.85383653641, 2.85333776474, 2.85383653641,   5.828145504, 0.010311611928, -0.010311611928, 1.63055708466e-16,             1, 119.766822815,           120, 119.766616821, 5.82874202728, 2.91877126694, 5.82874202728, 2.91877126694,   5.828145504, 5.82874202728, 2.91877126694, 22.4623966217, 5.82874202728, 2.91877126694, 1.35722037149e-18,             0, 0.0103476531804, -0.000307689799229, -0.0103476531804, 0.000307689799229, 0.837435781956, 0.837503492832, -0.837435781956, -0.837503492832, -2.891161677e-18, 0.837540090084, 0.83749973774,             0, -0.837540090084, -0.83749973774, 5.55111512313e-17,             0, 5.55111512313e-17,             0, -0.00642708688974, 0.317048966885, 0.324159264565,             0, 0.317048966885, 0.324159264565
          0.2, -0.0126990769058, -0.00054598407587, 0.0126990769058, 0.00054598407587, 4.5168485075e-15, 2.73639261097e-16,             0, -39.5800819397, -14.2539310455, -39.5800819397, -14.2539310455, 17.6177616119, 0.38084551692, -17.6177616119, -0.38084551692, 4555.76074219,  2641.8503418, 4555.76074219,  2641.8503418,             6,             0, -4.02990979343e-18, 0.106290720403,             0,             0,             0,             0,             0, -6.31395299542e-16,             0,             0,             0,             0,             0, -6.31396358333e-16, -0.0218590889126, -0.000535588245839, 0.0218590889126, 0.000535588245839, 3.26043272018, 3.26099920273, 3.26043272018, 3.26099920273, 6.65977239609, 0.011973853223, -0.011973853223, -4.27557217832e-16,             1, 119.733612061,           120, 119.733398438, 6.66034793854, 3.75037837029, 6.66034793854, 3.75037837029, 6.65977239609, 6.66034793854, 3.75037837029, 23.2894115448, 6.66034793854, 3.75037837029, 3.92187305712e-17,             0, 0.0120144253597, 0.000189709491679, -0.0120144253597, -0.000189709491679, 0.837425112724, 0.83749717474, -0.837425112724, -0.83749717474, -4.02990979343e-18, 0.837546050549, 0.837500214577,             0, -0.837546050549, -0.837500214577,             0, -5.55111512313e-17,             0, -5.55111512313e-17, -0.00623457925394, 0.317000865936, 0.324142336845,             0, 0.317000865936, 0.324142336845
        0.225, -0.01396607887, -0.000621630693786, 0.01396607887, 0.000621630693786, 3.31831340427e-15, 9.28156270463e-17,             0, -31.8072452545, -14.4615221024, -31.8072452545, -14.4615221024,  19.603427887, 0.550812780857, -19.603427887, -0.550812780857, 4565.49365234, 2649.53027344, 4565.49365234, 2649.53027344,             6,             0, -3.84445548651e-18, 0.102999798954,             0,             0,             0,             0,             0, -9.33163280738e-16,             0,             0,             0,             0,             0, -9.33164763045e-16, -0.0243745930493, -0.00120532070287, 0.0243745930493, 0.00120532070287, 3.66743946075, 3.66804981232, 3.66743946075, 3.66804981232, 7.49117231369, 0.013341685757, -0.013341685757, -1.99726049095e-15,             1, 119.701210022,           120, 119.700965881, 7.49172687531, 4.58175849915, 7.49172687531, 4.58175849915, 7.49117231369, 7.49172687531, 4.58175849915, 24.1163063049, 7.49172687531, 4.58175849915, 1.22974863791e-16,             0, 0.0133855259046, 0.000492328894325, -0.0133855259046, -0.000492328894325, 0.837416052818, 0.837493658066, -0.837416052818, -0.837493658066, -3.84445548651e-18, 0.837550878525,  0.8375005126,             0, -0.837550878525, -0.8375005126,             0, -5.55111512313e-17,             0, -5.55111512313e-17, -0.00607028976083, 0.316964536905, 0.324113696814,             0, 0.316964536905, 0.324113696814
         0.25, -0.0151140233502, -0.000479988491861, 0.0151140233502, 0.000479988491861, 2.79035226254e-15, 1.02423654116e-16,             0, -22.993806839, -14.6754722595, -22.993806839, -14.6754722595, 21.1572303772,  0.4898917377, -21.1572303772, -0.4898917377, 4570.45800781, 2656.31591797, 4570.45800781, 2656.31591797,             6,             0, -3.7767495126e-18, 0.099553450942,             0,             0,             0,             0,             0, -1.29386601446e-15,             0,             0,             0,             0,             0, -1.29386792028e-15, -0.0265224911273, -0.0012719189981, 0.0265224911273, 0.0012719189981, 4.07436800003, 4.07499170303, 4.07436800003, 4.07499170303, 8.32235240936, 0.0145581634715, -0.0145581634715, -3.38478410305e-15,             1, 119.669845581,           120, 119.669586182, 8.32288551331, 5.41291809082, 8.32288551331, 5.41291809082, 8.32235240936, 8.32288551331, 5.41291809082, 24.9431266785, 8.32288551331, 5.41291809082, 1.97518832112e-16,             0, 0.0146042685956, 0.000550386437681, -0.0146042685956, -0.000550386437681, 0.83740824461, 0.837493360043, -0.83740824461, -0.837493360043, -3.7767495126e-18, 0.837554991245,  0.8375005126,             0, -0.837554991245, -0.8375005126,             0,             0,             0,             0, -0.00591812003404, 0.316946029663, 0.32408836484,             0, 0.316946029663, 0.32408836484
        0.275, -0.0161012150347, -0.000218393863179, 0.0161012150347, 0.000218393863179, 2.34923423251e-15, 1.18611307388e-16,             0, 2.90640687943, -15.0939865112, 2.90640687943, -15.0939865112, 22.2051200867, 0.294262975454, -22.2051200867, -0.294262975454, 4570.99414062, 2660.49267578, 4570.99414062, 2660.49267578,             6,             0, -3.8885297375e-18, 0.0959836766124,             0,             0,             0,             0,             0, -1.72445828369e-15,             0,             0,             0,             0,             0, -1.72446071891e-15, -0.0284418631345, -0.000880706938915, 0.0284418631345, 0.000880706938915, 4.48124313354, 4.48182821274, 4.48124313354, 4.48182821274,  9.1533203125, 0.0155789023265, -0.0155789023265, -4.56625593931e-15,             1, 119.640220642,           120, 119.639938354, 9.15383243561,  6.2438659668, 9.15383243561,  6.2438659668,  9.1533203125, 9.15383243561,  6.2438659668, 25.7699775696, 9.15383243561,  6.2438659668, 2.61645592201e-16,             0, 0.0156265702099, 0.000429303909186, -0.0156265702099, -0.000429303909186, 0.837401211262,  0.8374953866, -0.837401211262, -0.8374953866, -3.8885297375e-18, 0.837558567524, 0.837500333786,             0, -0.837558567524, -0.837500333786, 5.55111512313e-17,             0, 5.55111512313e-17,             0, -0.00576762575656, 0.316944003105, 0.324072778225,             0, 0.316944003105, 0.324072778225
          0.3, -0.017123663798, 0.000277762068436, 0.017123663798, -0.000277762068436, 2.1380377903e-15, -8.45880056004e-17,             0,  53.544342041, -16.0518341064,  53.544342041, -16.0518341064, 24.7720222473, -0.0594574660063, -24.7720222473, 0.0594574660063, 4567.21630859, 2664.28442383, 4567.21630859, 2664.28442383,             6,             0, -1.09395949159e-18, 0.091993317008,             0,             0,             0,             0,             0, -1.91094275142e-15,             0,             0,             0,             0,             0, -1.91094529252e-15, -0.0302782673389, -0.000134643560159, 0.0302782673389, 0.000134643560159, 4.88816452026,  4.8885679245, 4.88816452026,  4.8885679245,  9.9841003418, 0.016602743417, -0.016602743417, -5.93091749689e-15,             1, 119.615272522,           120,  119.61492157,  9.9845905304, 7.07462406158,  9.9845905304, 7.07462406158,  9.9841003418,  9.9845905304, 7.07462406158,  26.597284317,  9.9845905304, 7.07462406158, 3.2634228635e-16,             0, 0.0166513789445, 6.47453489364e-05, -0.0166513789445, -6.47453489364e-05, 0.837394475937, 0.837499260902, -0.837394475937, -0.837499260902, -1.09395949159e-18, 0.837561964989, 0.837500035763,             0, -0.837561964989, -0.837500035763,             0,             0,             0,             0, -0.00560809625313, 0.316958099604, 0.324058651924,             0, 0.316958099604, 0.324058651924
        0.325, -0.0181970968843, 0.000958484655712, 0.0181970968843, -0.000958484655712, 1.2552517941e-15, -1.43145497592e-16,             0, 109.795196533, -17.2380867004, 109.795196533, -17.2380867004, 26.6333141327, -0.602162778378, -26.6333141327, 0.602162778378, 4558.76904297,  2671.5637207, 4558.76904297,  2671.5637207,             6,             0, 8.92317363479e-18, 0.0870231688023,             0,             0,             0,             0,             0, -1.21882736566e-15,             0,             0,             0,             0,             0, -1.21882874209e-15, -0.0321529656649, 0.00103921163827, 0.0321529656649, -0.00103921163827, 5.29519987106, 5.29522943497, 5.29519987106, 5.29522943497, 10.8147382736, 0.0176477413625, -0.0176477413625, -7.4123565223e-15,             1, 119.596763611,           120, 119.596305847, 10.8152008057, 7.90523481369, 10.8152008057, 7.90523481369, 10.8147382736, 10.8152008057, 7.90523481369, 27.4253368378, 10.8152008057, 7.90523481369, 3.71367540271e-16,             0, 0.0176965966821, -0.000424406316597, -0.0176965966821, 0.000424406316597, 0.837387502193, 0.837505459785, -0.837387502193, -0.837505459785, 8.92317363479e-18, 0.837565422058, 0.837499558926,             0, -0.837565422058, -0.837499558926,             0,             0,             0,             0, -0.00542840361595, 0.316989630461, 0.324031472206,             0, 0.316989630461, 0.324031472206
         0.35, -0.0193111803383, 0.0020229103975, 0.0193111803383, -0.0020229103975, 5.74568282627e-16, 1.32738020312e-17,             0, 160.541915894, -18.3548908234, 160.541915894, -18.3548908234, 28.3530464172, -1.42604219913, -28.3530464172, 1.42604219913, 4546.63671875, 2682.93041992, 4546.63671875, 2682.93041992,             6,             0, 1.26297691325e-17, 0.0807856917381,             0,             0,             0,             0,             0, -1.1020906613e-15,             0,             0,             0,             0,             0, -1.10209172009e-15, -0.0341676734388, 0.00284220906906, 0.0341676734388, -0.00284220906906,  5.7023692131, 5.70183515549,  5.7023692131, 5.70183515549,  11.645280838, 0.0187112335116, -0.0187112335116, -8.06710028504e-15,             1, 119.584617615,           120,  119.58404541, 11.6457090378, 8.73574352264, 11.6457090378, 8.73574352264,  11.645280838, 11.6457090378, 8.73574352264, 28.2541770935, 11.6457090378, 8.73574352264, 3.9326543307e-16,             0, 0.0187594275922, -0.00122544437181, -0.0187594275922, 0.00122544437181, 0.837379932404, 0.837514877319, -0.837379932404, -0.837514877319, 1.26297691325e-17, 0.837568998337, 0.837498784065,             0, -0.837568998337, -0.837498784065,             0,             0,             0,             0, -0.00522397784516, 0.317034870386, 0.323989063501,             0, 0.317034870386, 0.323989063501
        0.375, -0.0206192992628, 0.00336080999114, 0.0206192992628, -0.00336080999114, 1.83826557754e-16, 8.20249699288e-17,             0, 201.358413696, -19.2587757111, 201.358413696, -19.2587757111,  30.175409317, -2.57318615913, -30.175409317, 2.57318615913, 4533.30517578, 2695.34667969, 4533.30517578, 2695.34667969,             6,             0, 1.30669952976e-17, 0.0735096260905,             0,             0,             0,             0,             0, -1.33078987469e-15,             0,             0,             0,             0,             0, -1.33079093349e-15, -0.0363866649568, 0.00539251929149, 0.0363866649568, -0.00539251929149, 6.10966587067, 6.10840559006, 6.10966587067, 6.10840559006, 12.4757680893, 0.0199617557228, -0.0199617557228, -8.27047204864e-15,             1, 119.577850342,           120, 119.577209473, 12.4761543274, 9.56619262695, 12.4761543274, 9.56619262695, 12.4757680893, 12.4761543274, 9.56619262695, 29.0837135315, 12.4761543274, 9.56619262695, 4.02439964559e-16,             0, 0.0200084559619, -0.00229702051729, -0.0200084559619, 0.00229702051729, 0.837371587753, 0.837528169155, -0.837371587753, -0.837528169155, 1.30669952976e-17, 0.837572932243, 0.837497711182,             0, -0.837572932243, -0.837497711182,             0,             0,             0,             0, -0.00499963248149, 0.317084610462, 0.32394272089,             0, 0.317084610462, 0.32394272089
          0.4, -0.0220375955105, 0.00490807229653, 0.0220375955105, -0.00490807229653, 7.73430548698e-17, 1.41308865464e-16,             0, 232.482376099, -19.933588028, 232.482376099, -19.933588028, 32.1497459412, -3.94527935982, -32.1497459412, 3.94527935982, 4521.58496094, 2705.09863281, 4521.58496094, 2705.09863281,             6,             0, 1.20443949196e-17, 0.0657742843032,             0,             0,             0,             0,             0, -1.77088998288e-15,             0,             0,             0,             0,             0, -1.77089114755e-15, -0.0387980937958, 0.00858085043728, 0.0387980937958, -0.00858085043728, 6.51707172394, 6.51495742798, 6.51707172394, 6.51495742798, 13.3062267303, 0.0213327985257, -0.0213327985257, -8.259812139e-15,             1, 119.575294495,           120, 119.574638367, 13.3065690994, 10.3966112137, 13.3065690994, 10.3966112137, 13.3062267303, 13.3065690994, 10.3966112137,  29.913816452, 13.3065690994, 10.3966112137, 4.05276836718e-16,             0, 0.021377351135, -0.00366082182154, -0.021377351135, 0.00366082182154, 0.837362349033, 0.837544798851, -0.837362349033, -0.837544798851, 1.20443949196e-17, 0.837577104568, 0.83749628067,             0, -0.837577104568, -0.83749628067,             0, 5.55111512313e-17,             0, 5.55111512313e-17, -0.00476662162691, 0.317128330469, 0.323906332254,             0, 0.317128330469, 0.323906332254
        0.425, -0.0234564095736, 0.00648235855624, 0.0234564095736, -0.00648235855624, 4.80038188104e-16, -5.18287085803e-17,             0, 255.520446777, -20.422372818, 255.520446777, -20.422372818, 34.2659912109, -5.40022611618, -34.2659912109, 5.40022611618, 4513.29296875, 2710.49951172, 4513.29296875, 2710.49951172,             6,             0, 1.44050740893e-17, 0.0581647194922,             0,             0,             0,             0,             0, -1.90329023226e-15,             0,             0,             0,             0,             0, -1.90329129105e-15, -0.0413320548832, 0.0121162468567, 0.0413320548832, -0.0121162468567, 6.92456817627, 6.92150306702, 6.92456817627, 6.92150306702, 14.1366786957, 0.0227270312607, -0.0227270312607, -8.30290917535e-15,             1, 119.575889587,           120, 119.575263977, 14.1369762421, 11.2270240784, 14.1369762421, 11.2270240784, 14.1366786957, 14.1369762421, 11.2270240784,  30.744354248, 14.1369762421, 11.2270240784, 4.00392659456e-16,             0, 0.0227690022439, -0.00517323240638, -0.0227690022439, 0.00517323240638, 0.837352633476, 0.837563157082, -0.837352633476, -0.837563157082, 1.44050740893e-17, 0.837581396103, 0.837494671345,             0, -0.837581396103, -0.837494671345, 5.55111512313e-17,             0, 5.55111512313e-17,             0, -0.00453704223037, 0.31715926528, 0.323886185884,             0, 0.31715926528, 0.323886185884
         0.45, -0.0249023456126, 0.00797263067216, 0.0249023456126, -0.00797263067216, -1.21704785532e-15, -2.1120986239e-16,             0, 272.453613281, -20.7820987701, 272.453613281, -20.7820987701, 36.4403457642, -6.79937267303, -36.4403457642, 6.79937267303, 4508.72753906, 2712.37255859, 4508.72753906, 2712.37255859,             6,             0, 2.50234063242e-17, 0.051026456058,             0,             0,             0,             0,             0, -1.13583084232e-15,             0,             0,             0,             0,             0, -1.13583137172e-15, -0.0438983887434, 0.0156868994236, 0.0438983887434, -0.0156868994236, 7.33213949203, 7.32805156708, 7.33213949203, 7.32805156708, 14.9671392441, 0.0241742394865, -0.0241742394865, -9.4586551387e-15,             1, 119.578811646,           120, 119.578231812, 14.9673948288, 12.0574483871, 14.9673948288, 12.0574483871, 14.9671392441, 14.9673948288, 12.0574483871, 31.5752277374, 14.9673948288, 12.0574483871, 4.25137059413e-16,             0, 0.0242133438587, -0.00669974088669, -0.0242133438587, 0.00669974088669, 0.837342679501, 0.837581694126, -0.837342679501, -0.837581694126, 2.50234063242e-17, 0.837585687637, 0.837493002415,             0, -0.837585687637, -0.837493002415,             0,             0,             0,             0, -0.00431943591684, 0.317176282406, 0.323879182339,             0, 0.317176282406, 0.323879182339
        0.475, -0.0263020116836, 0.00937677640468, 0.0263020116836, -0.00937677640468, -3.82170635538e-15, -1.22149099311e-17,             0, 284.973876953, -21.0571422577, 284.973876953, -21.0571422577,  38.575302124, -8.08528804779, -38.575302124, 8.08528804779, 4507.00927734, 2712.77416992, 4507.00927734, 2712.77416992,             6,             0, 2.67379862979e-17, 0.0444277822971,             0,             0,             0,             0,             0, -1.03855366113e-15,             0,             0,             0,             0,             0, -1.03855397877e-15, -0.0464083701372, 0.0190950222313, 0.0464083701372, -0.0190950222313, 7.73977375031, 7.73461008072, 7.73977375031, 7.73461008072,  15.797621727, 0.0255961082876, -0.0255961082876, -8.12508053731e-15,             1, 119.583450317,           120,  119.58290863, 15.7978382111, 12.8878965378, 15.7978382111, 12.8878965378,  15.797621727, 15.7978382111, 12.8878965378, 32.4063568115, 15.7978382111, 12.8878965378, 3.45394069037e-16,             0, 0.0256321020424, -0.0081830797717, -0.0256321020424, 0.0081830797717, 0.837332904339, 0.837599337101, -0.837332904339, -0.837599337101, 2.67379862979e-17, 0.837589800358, 0.837491393089,             0, -0.837589800358, -0.837491393089,             0, 5.55111512313e-17,             0, 5.55111512313e-17, -0.00411733239889, 0.317182689905, 0.323877692223,             0, 0.317182689905, 0.323877692223
          0.5, -0.0276562478393, 0.0106094712391, 0.0276562478393, -0.0106094712391, -4.65767620531e-15, 4.90175087988e-17,             0, 294.434387207, -21.2741107941, 294.434387207, -21.2741107941, 40.6378746033, -9.28215122223, -40.6378746033, 9.28215122223, 4506.82958984, 2713.40795898, 4506.82958984, 2713.40795898,             6,             0, 2.5306399701e-17, 0.0382727347314,             0,             0,             0,             0,             0, -1.23998180176e-15,             0,             0,             0,             0,             0, -1.2399821194e-15, -0.0488052964211, 0.0222904793918, 0.0488052964211, -0.0222904793918, 8.14746284485, 8.14118480682, 8.14746284485, 8.14118480682, 16.6281356812, 0.0269847083837, -0.0269847083837, -6.2789421591e-15,             1, 119.589355469,           120, 119.588844299, 16.6283168793,  13.718380928, 16.6283168793,  13.718380928, 16.6281356812, 16.6283168793,  13.718380928, 33.2376976013, 16.6283168793,  13.718380928, 2.49994283434e-16,             0, 0.0270173158497, -0.00949065480381, -0.0270173158497, 0.00949065480381, 0.837323486805, 0.837615787983, -0.837323486805, -0.837615787983, 2.5306399701e-17, 0.837593615055, 0.837489783764,             0, -0.837593615055, -0.837489783764,             0,             0,             0,             0, -0.00393033027649, 0.317183345556, 0.323875308037,             0, 0.317183345556, 0.323875308037
        0.525, -0.0288535486907, 0.011871102266, 0.0288535486907, -0.011871102266, -3.23316033505e-15, 1.52936523482e-16,             0, 301.792541504, -21.4480571747, 301.792541504, -21.4480571747, 42.5980682373, -10.4219684601, -42.5980682373, 10.4219684601, 4507.09033203, 2714.85253906, 4507.09033203, 2714.85253906,             6,             0, 2.29979867655e-17, 0.0324413217604,             0,             0,             0,             0,             0, -1.48345612849e-15,             0,             0,             0,             0,             0, -1.48345634025e-15, -0.0510593131185, 0.0253158546984, 0.0510593131185, -0.0253158546984, 8.55520343781, 8.54777812958, 8.55520343781, 8.54777812958, 17.4586925507, 0.0282202865928, -0.0282202865928, -3.66265304964e-15,             1, 119.596229553,           120, 119.595748901, 17.4588375092, 14.5489082336, 17.4588375092, 14.5489082336, 17.4586925507, 17.4588375092, 14.5489082336, 34.0692138672, 17.4588375092, 14.5489082336, 1.17301040063e-16,             0, 0.0282492022961, -0.0108044380322, -0.0282492022961, 0.0108044380322, 0.837314546108,  0.8376314044, -0.837314546108, -0.8376314044, 2.29979867655e-17, 0.837597191334, 0.837488293648,             0, -0.837597191334, -0.837488293648,             0,             0,             0,             0, -0.0037561734207, 0.31718236208, 0.323869913816,             0, 0.31718236208, 0.323869913816
         0.55, -0.0300529152155, 0.0130963977426, 0.0300529152155, -0.0130963977426, -3.38059806623e-15, 5.71499680783e-17,             0, 307.652252197, -21.5866737366, 307.652252197, -21.5866737366,  44.439655304, -11.5218524933, -44.439655304, 11.5218524933, 4507.19042969, 2716.74511719, 4507.19042969, 2716.74511719,             6,             0, 2.23728929941e-17, 0.0268701650202,             0,             0,             0,             0,             0, -1.7362911222e-15,             0,             0,             0,             0,             0, -1.73629122808e-15, -0.0531789958477, 0.0282279346138, 0.0531789958477, -0.0282279346138, 8.96298980713, 8.95439624786, 8.96298980713, 8.95439624786, 18.2892971039, 0.0294565930963, -0.0294565930963, -2.28257549241e-15,             1, 119.603874207,           120, 119.603408813, 18.2894096375, 15.3794851303, 18.2894096375, 15.3794851303, 18.2892971039, 18.2894096375, 15.3794851303, 34.9008827209, 18.2894096375, 15.3794851303, 4.46047186065e-17,             0, 0.0294815357774, -0.0120660094544, -0.0294815357774, 0.0120660094544, 0.837306082249, 0.837646365166, -0.837306082249, -0.837646365166, 2.23728929941e-17, 0.837600469589, 0.837486803532,             0, -0.837600469589, -0.837486803532, 5.55111512313e-17,             0, 5.55111512313e-17,             0, -0.00359248998575, 0.317181974649, 0.323862850666,             0, 0.317181974649, 0.323862850666
        0.575, -0.0311837252229, 0.0142088718712, 0.0311837252229, -0.0142088718712, -3.17979620059e-15, -4.35219954329e-17,             0, 312.358337402, -21.6952323914, 312.358337402, -21.6952323914, 46.1678085327, -12.5889539719, -46.1678085327, 12.5889539719, 4506.96972656, 2718.43237305, 4506.96972656, 2718.43237305,             6,             0, 2.22405606397e-17, 0.0215583126992,             0,             0,             0,             0,             0, -1.92471804824e-15,             0,             0,             0,             0,             0, -1.92471826e-15, -0.0551731213927, 0.031048508361, 0.0551731213927, -0.031048508361, 9.37082195282, 9.36103916168, 9.37082195282, 9.36103916168, 19.1199550629, 0.0306210182607, -0.0306210182607, -6.72098779608e-16,             1, 119.612129211,           120, 119.611686707, 19.1200351715, 16.2101154327, 19.1200351715, 16.2101154327, 19.1199550629, 19.1200351715, 16.2101154327, 35.7326889038, 19.1200351715, 16.2101154327, -4.1702952474e-17,             0, 0.0306417811662, -0.0132148573175, -0.0306417811662, 0.0132148573175, 0.837298035622, 0.837660849094, -0.837298035622, -0.837660849094, 2.22405606397e-17, 0.837603509426, 0.83748537302,             0, -0.837603509426, -0.83748537302,             0, 5.55111512313e-17,             0, 5.55111512313e-17, -0.00343762617558, 0.317182809114, 0.323856562376,             0, 0.317182809114, 0.323856562376
          0.6, -0.0321911647916, 0.0153342615813, 0.0321911647916, -0.0153342615813, -2.88414379727e-15, -1.97166003185e-16,             0,   316.0987854, -21.7791957855,   316.0987854, -21.7791957855, 47.8016662598, -13.6046552658, -47.8016662598, 13.6046552658, 4506.51611328, 2719.51000977, 4506.51611328, 2719.51000977,             6,             0, 2.70492427818e-17, 0.0165319610387,             0,             0,             0,             0,             0, -1.52176022892e-15,             0,             0,             0,             0,             0, -1.5217603348e-15, -0.0570532754064, 0.0337596721947, 0.0570532754064, -0.0337596721947, 9.77869796753, 9.76770973206, 9.77869796753, 9.76770973206, 19.9506702423, 0.0316589325666, -0.0316589325666, 4.19402196374e-16,             1, 119.620864868,           120, 119.620452881, 19.9507198334, 17.0408058167, 19.9507198334, 17.0408058167, 19.9506702423, 19.9507198334, 17.0408058167, 36.5646209717, 19.9507198334, 17.0408058167, -1.17084848138e-16,             0, 0.0316753946245, -0.0143874725327, -0.0316753946245, 0.0143874725327, 0.837290465832, 0.837674736977, -0.837290465832, -0.837674736977, 2.70492427818e-17, 0.837606310844, 0.837483882904,             0, -0.837606310844, -0.837483882904,             0,             0,             0,             0, -0.00329071329907, 0.317184478045, 0.32385250926,             0, 0.317184478045, 0.32385250926
        0.625, -0.0332102961838, 0.0163837242872, 0.0332102961838, -0.0163837242872, -2.74150027258e-15, -1.14299552345e-16,             0, 318.986206055, -21.8434429169, 318.986206055, -21.8434429169, 49.3478736877, -14.5528087616, -49.3478736877, 14.5528087616, 4505.98828125, 2719.97900391, 4505.98828125, 2719.97900391,             6,             0, 2.94695897978e-17, 0.0118097383529,             0,             0,             0,             0,             0, -1.26927940086e-15,             0,             0,             0,             0,             0, -1.26927940086e-15, -0.0588377416134, 0.0363271832466, 0.0588377416134, -0.0363271832466, 10.1866149902, 10.1744098663, 10.1866149902, 10.1744098663, 20.7814426422, 0.0327064357698, -0.0327064357698, 1.58688859223e-15,             1, 119.629989624,           120, 119.629600525, 20.7814655304, 17.8715553284, 20.7814655304, 17.8715553284, 20.7814426422, 20.7814655304, 17.8715553284, 37.3966636658, 20.7814655304, 17.8715553284, -1.88820544897e-16,             0, 0.032718565315, -0.015495672822, -0.032718565315, 0.015495672822, 0.837283194065, 0.837687849998, -0.837283194065, -0.837687849998, 2.94695897978e-17, 0.837608933449, 0.837482511997,             0, -0.837608933449, -0.837482511997, 5.55111512313e-17, 5.55111512313e-17, 5.55111512313e-17, 5.55111512313e-17, -0.00315139186569, 0.317186444998, 0.323850750923,             0, 0.317186444998, 0.323850750923
         0.65, -0.0341394916177, 0.0172933749855, 0.0341394916177, -0.0172933749855, -2.11129208971e-15, -4.02263325102e-17,             0, 321.105651855, -21.8913898468, 321.105651855, -21.8913898468, 50.8120155334, -15.4326648712, -50.8120155334, 15.4326648712, 4505.50732422, 2720.08935547, 4505.50732422, 2720.08935547,             6,             0, 2.84715401405e-17, 0.00738982623443,             0,             0,             0,             0,             0, -1.34475427162e-15,             0,             0,             0,             0,             0, -1.34475427162e-15, -0.060528267175, 0.0387256890535, 0.060528267175, -0.0387256890535, 10.5945730209, 10.5811395645, 10.5945730209, 10.5811395645, 21.6122779846, 0.0336629375815, -0.0336629375815, 2.78266437975e-15,             1, 119.639404297,           120, 119.639038086, 21.6122741699, 18.7023677826, 21.6122741699, 18.7023677826, 21.6122779846, 21.6122741699, 18.7023677826, 38.2288131714, 21.6122741699, 18.7023677826, -2.49915297612e-16,             0, 0.03367074579, -0.0164695028216, -0.03367074579, 0.0164695028216, 0.837276279926, 0.837700068951, -0.837276279926, -0.837700068951, 2.84715401405e-17, 0.837611377239, 0.837481200695,             0, -0.837611377239, -0.837481200695,             0,             0,             0,             0, -0.00301953521557, 0.317188233137, 0.323850333691,             0, 0.317188233137, 0.323850333691
        0.675, -0.0350761339068, 0.0181713923812, 0.0350761339068, -0.0181713923812, -1.41563155343e-15, -1.28297532804e-17,             0, 322.537780762, -21.9255104065, 322.537780762, -21.9255104065, 52.1919212341, -16.236322403, -52.1919212341,  16.236322403, 4505.14892578, 2720.10302734, 4505.14892578, 2720.10302734,             6,             0, 2.61336762665e-17, 0.00325657357462,             0,             0,             0,             0,             0, -1.57748546773e-15,             0,             0,             0,             0,             0, -1.57748546773e-15, -0.0621335990727, 0.0409490540624, 0.0621335990727, -0.0409490540624, 11.0025682449, 10.9879016876, 11.0025682449, 10.9879016876, 22.4431781769, 0.0346265137196, -0.0346265137196, 3.7514115146e-15,             1, 119.649009705,           120, 119.648674011, 22.4431495667,  19.533246994, 22.4431495667,  19.533246994, 22.4431781769, 22.4431476593,  19.533246994,  39.061050415, 22.4431476593,  19.533246994, -2.93951217051e-16,             0, 0.0346300452948, -0.0174103192985, -0.0346300452948, 0.0174103192985, 0.837269663811, 0.837711453438, -0.837269663811, -0.837711453438, 2.61336762665e-17, 0.837613642216, 0.837479948997,             0, -0.837613642216, -0.837479948997, -5.55111512313e-17,             0, -5.55111512313e-17,             0, -0.00289509468712, 0.317189544439, 0.323850274086,             0, 0.317189544439, 0.323850274086
          0.7, -0.035892277956, 0.0190164931118, 0.035892277956, -0.0190164931118, -6.6416954537e-16, 2.33582007612e-17,             0, 323.363433838, -21.9471263885, 323.363433838, -21.9471263885, 53.5114707947, -16.9802818298, -53.5114707947, 16.9802818298, 4504.94580078, 2720.14770508, 4504.94580078, 2720.14770508,             6,             0, 2.32359418123e-17, -0.000606996647548,             0,             0,             0,             0,             0, -1.90386769697e-15,             0,             0,             0,             0,             0, -1.90386769697e-15, -0.0636487305164, 0.0430058836937, 0.0636487305164, -0.0430058836937, 11.4106006622, 11.3946962357, 11.4106006622, 11.3946962357, 23.2741413116, 0.0354695655406, -0.0354695655406, 4.42122272292e-15,             1, 119.658752441,           120, 119.658432007, 23.2740898132, 20.3641910553, 23.2740898132, 20.3641910553, 23.2741413116, 23.2740898132, 20.3641910553, 39.8933677673, 23.2740898132, 20.3641910553, -3.19846337737e-16,             0, 0.035468891263, -0.0183132793754, -0.035468891263, 0.0183132793754, 0.837263405323, 0.837721884251, -0.837263405323, -0.837721884251, 2.32359418123e-17, 0.837615787983, 0.837478816509,             0, -0.837615787983, -0.837478816509,             0,             0,             0,             0, -0.0027780411765,  0.3171903193, 0.323850095272,             0,  0.3171903193, 0.323850095272
        0.725, -0.0367285534739, 0.019734269008, 0.0367285534739, -0.019734269008, -1.60118989651e-15, -1.7193604159e-16,             0,   323.6640625, -21.9574108124,   323.6640625, -21.9574108124, 54.7552566528, -17.6734008789, -54.7552566528, 17.6734008789, 4504.91113281, 2720.21655273, 4504.91113281, 2720.21655273,             6,             0, 2.5879629248e-17, -0.00421190168709,             0,             0,             0,             0,             0, -1.59884573283e-15,             0,             0,             0,             0,             0, -1.59884573283e-15, -0.0650817751884, 0.0449100546539, 0.0650817751884, -0.0449100546539, 11.8186683655, 11.8015222549, 11.8186683655, 11.8015222549, 24.1051712036, 0.0363328158855, -0.0363328158855, 4.70904833004e-15,             1, 119.668548584,           120, 119.668251038,  24.105096817, 21.1952037811,  24.105096817, 21.1952037811, 24.1051712036,  24.105096817, 21.1952037811, 40.7257614136,  24.105096817, 21.1952037811, -3.44680814355e-16,             0, 0.0363280288875, -0.0190839469433, -0.0363280288875, 0.0190839469433, 0.837257504463, 0.837731599808, -0.837257504463, -0.837731599808, 2.5879629248e-17, 0.837617754936, 0.837477743626,             0, -0.837617754936, -0.837477743626,             0, -5.55111512313e-17,             0, -5.55111512313e-17, -0.00266832718626, 0.317190438509, 0.323849827051,             0, 0.317190438509, 0.323849827051
         0.75, -0.0374523811042, 0.0204570293427, 0.0374523811042, -0.0204570293427, 1.64806194696e-15, -2.37449308587e-17,             0, 323.515594482, -21.9578495026, 323.515594482, -21.9578495026, 55.9318771362, -18.3098945618, -55.9318771362, 18.3098945618, 4505.03222656, 2720.24169922, 4505.03222656, 2720.24169922,             6,             0, 2.76992892837e-17, -0.00756384246051,             0,             0,             0,             0,             0, -1.26380682686e-15,             0,             0,             0,             0,             0, -1.26380682686e-15, -0.0664264261723, 0.0466727800667, 0.0664264261723, -0.0466727800667, 12.2267694473, 12.2083816528, 12.2267694473, 12.2083816528, 24.9362659454, 0.0370835699141, -0.0370835699141, 5.15714697035e-15,             1, 119.678344727,           120, 119.678070068, 24.9361724854, 22.0262813568, 24.9361724854, 22.0262813568, 24.9362659454, 24.9361724854, 22.0262813568, 41.5582199097, 24.9361724854, 22.0262813568, -3.73714456809e-16,             0, 0.0370748005807, -0.0198563802987, -0.0370748005807, 0.0198563802987, 0.837251901627, 0.837740540504, -0.837251901627, -0.837740540504, 2.76992892837e-17, 0.83761960268, 0.837476730347,             0, -0.83761960268, -0.837476730347,             0,             0,             0,             0, -0.00256584119052, 0.317189961672, 0.323849737644,             0, 0.317189961672, 0.323849737644
        0.775, -0.0381468832493, 0.0210929829627, 0.0381468832493, -0.0210929829627, 6.52417217337e-15, 9.51555489457e-17,             0,   322.9894104, -21.949836731,   322.9894104, -21.949836731, 57.0326843262, -18.8913993835, -57.0326843262, 18.8913993835, 4505.28369141, 2720.17211914, 4505.28369141, 2720.17211914,             6,             0, 2.78701434392e-17, -0.0106680002064,             0,             0,             0,             0,             0, -1.43906069651e-15,             0,             0,             0,             0,             0, -1.43906080239e-15, -0.0676880851388, 0.0483003295958, 0.0676880851388, -0.0483003295958, 12.6349029541, 12.6152734756, 12.6349029541, 12.6152734756, 25.7674274445, 0.0378047004342, -0.0378047004342, 2.58527118645e-15,             1, 119.688102722,           120, 119.687843323, 25.7673149109,  22.857427597, 25.7673149109,  22.857427597, 25.7674274445, 25.7673149109,  22.857427597, 42.3907394409, 25.7673149109,  22.857427597, -2.32662242328e-16,             0, 0.0377921015024, -0.0205403268337, -0.0377921015024, 0.0205403268337, 0.837246596813, 0.837748765945, -0.837246596813, -0.837748765945, 2.78701434392e-17, 0.837621331215, 0.837475776672,             0, -0.837621331215, -0.837475776672,             0, -5.55111512313e-17,             0, -5.55111512313e-17, -0.00247037108056, 0.317189007998, 0.323849976063,             0, 0.317189007998, 0.323849976063
          0.8, -0.0388104468584, 0.0216741785407, 0.0388104468584, -0.0216741785407, 7.54886774021e-15, 1.35861993627e-16,             0, 322.149261475, -21.9348468781, 322.149261475, -21.9348468781, 58.0593299866, -19.4284057617, -58.0593299866, 19.4284057617, 4505.62451172, 2720.00366211, 4505.62451172, 2720.00366211,             6,             0, 2.83215987652e-17, -0.0135330036283,             0,             0,             0,             0,             0, -1.81092340694e-15,             0,             0,             0,             0,             0, -1.81092340694e-15, -0.0688685327768, 0.0497957468033, 0.0688685327768, -0.0497957468033, 13.0430660248, 13.0221977234, 13.0430660248, 13.0221977234, 26.5986537933, 0.0384942777455, -0.0384942777455, -1.24678898204e-15,             1, 119.697769165,           120, 119.697532654, 26.5985240936, 23.6886386871, 26.5985240936, 23.6886386871, 26.5986537933, 26.5985240936, 23.6886386871, 43.2233123779, 26.5985240936, 23.6886386871, -2.6474443246e-17,             0, 0.038478013128, -0.021168300882, -0.038478013128, 0.021168300882, 0.837241649628, 0.837756335735, -0.837241649628, -0.837756335735, 2.83215987652e-17, 0.83762294054, 0.837474882603,             0, -0.83762294054, -0.837474882603,             0, -5.55111512313e-17,             0, -5.55111512313e-17, -0.00238159601577, 0.317187726498, 0.323850601912,             0, 0.317187726498, 0.323850601912
        0.825, -0.0394296199083, 0.0221806876361, 0.0394296199083, -0.0221806876361, -3.39064408874e-15, -3.02279271458e-16,             0, 321.052001953, -21.9142494202, 321.052001953, -21.9142494202,  59.023109436, -19.9167804718, -59.023109436, 19.9167804718, 4506.01220703, 2719.76611328, 4506.01220703, 2719.76611328,             6,             0, 2.8689131655e-17, -0.0161715876311,             0,             0,             0,             0,             0, -1.83755666391e-15,             0,             0,             0,             0,             0, -1.83755666391e-15, -0.0699698403478, 0.0511627756059, 0.0699698403478, -0.0511627756059, 13.4512586594, 13.4291543961, 13.4512586594, 13.4291543961, 27.4299449921, 0.0391385406256, -0.0391385406256, -1.66269242942e-15,             1, 119.707313538,           120, 119.707099915, 27.4297981262, 24.5199165344, 27.4297981262, 24.5199165344, 27.4299449921, 27.4297981262, 24.5199165344, 44.0559310913, 27.4297981262, 24.5199165344, -1.02800021295e-17,             0, 0.0391187928617, -0.0217198804021, -0.0391187928617, 0.0217198804021, 0.83723706007, 0.837763249874, -0.83723706007, -0.837763249874, 2.8689131655e-17, 0.837624371052, 0.837474107742,             0, -0.837624371052, -0.837474107742,             0,             0,             0,             0, -0.00229912041686, 0.317186295986, 0.323851495981,             0, 0.317186295986, 0.323851495981
         0.85, -0.040006596595, 0.0226415395737, 0.040006596595, -0.0226415395737, -1.82857853818e-15, -9.75279955867e-17,             0, 319.747009277, -21.8890953064, 319.747009277, -21.8890953064, 59.9221725464, -20.3578701019, -59.9221725464, 20.3578701019, 4506.41503906, 2719.49267578, 4506.41503906, 2719.49267578,             6,             0, 3.14980649616e-17, -0.01859860681,             0,             0,             0,             0,             0, -1.28065462982e-15,             0,             0,             0,             0,             0, -1.28065462982e-15, -0.0709957033396, 0.05240675807, 0.0709957033396, -0.05240675807, 13.8594799042,   13.83614254, 13.8594799042,   13.83614254, 28.2612991333, 0.0397394560277, -0.0397394560277, -7.74297751618e-16,             1, 119.716712952,           120, 119.716514587,  28.261138916, 25.3512592316,  28.261138916, 25.3512592316, 28.2612991333,  28.261138916, 25.3512592316, 44.8885917664,  28.261138916, 25.3512592316, -6.73819871148e-17,             0, 0.039716411382, -0.0222234483808, -0.039716411382, 0.0222234483808, 0.837232708931, 0.837769567966, -0.837232708931, -0.837769567966, 3.14980649616e-17, 0.837625741959, 0.837473332882,             0, -0.837625741959, -0.837473332882,             0,             0,             0,             0, -0.00222252472304, 0.317184776068, 0.32385250926,             0, 0.317184776068, 0.32385250926
        0.875, -0.0405653342605, 0.0230961162597, 0.0405653342605, -0.0230961162597, -1.00950736613e-16, 1.85600585544e-17,             0,  318.27633667, -21.860206604,  318.27633667, -21.860206604, 60.7531738281, -20.7558879852, -60.7531738281, 20.7558879852, 4506.81689453, 2719.20288086, 4506.81689453, 2719.20288086,             6,             0, 2.97551424714e-17, -0.0208284892142,             0,             0,             0,             0,             0, -1.24246593764e-15,             0,             0,             0,             0,             0, -1.24246604352e-15, -0.0719514116645, 0.0535346716642, 0.0719514116645, -0.0535346716642, 14.2677268982, 14.2431631088, 14.2677268982, 14.2431631088, 29.0927181244, 0.0403208732605, -0.0403208732605, -1.04533163201e-16,             1, 119.725944519,           120, 119.725761414, 29.0925426483, 26.1826667786, 29.0925426483, 26.1826667786, 29.0927181244, 29.0925426483, 26.1826667786, 45.7212944031, 29.0925426483, 26.1826667786, -9.71179919355e-17,             0, 0.0402947179973, -0.0227180439979, -0.0402947179973, 0.0227180439979, 0.837228655815, 0.837775230408, -0.837228655815, -0.837775230408, 2.97551424714e-17, 0.837626993656, 0.837472677231,             0, -0.837626993656, -0.837472677231, 5.55111512313e-17,             0, 5.55111512313e-17,             0, -0.00215141614899, 0.317183256149, 0.323853582144,             0, 0.317183256149, 0.323853582144
          0.9, -0.0410434231162, 0.023479077965, 0.0410434231162, -0.023479077965, -5.10845274028e-15, 1.92282302378e-17,             0, 316.674835205, -21.8282604218, 316.674835205, -21.8282604218,  61.530456543, -21.1160259247, -61.530456543, 21.1160259247, 4507.21435547, 2718.89892578, 4507.21435547, 2718.89892578,             6,             0, 2.54370661136e-17, -0.0228738021106,             0,             0,             0,             0,             0, -1.49564609727e-15,             0,             0,             0,             0,             0, -1.49564620315e-15, -0.0728377774358, 0.0545537024736, 0.0728377774358, -0.0545537024736, 14.6760005951, 14.6502132416, 14.6760005951, 14.6502132416, 29.9241962433, 0.0408203937113, -0.0408203937113, 7.54602012132e-16,             1, 119.734992981,           120, 119.734825134, 29.9240112305, 27.0141353607, 29.9240112305, 27.0141353607, 29.9241962433, 29.9240093231, 27.0141353607, 46.5540351868, 29.9240093231, 27.0141353607, -1.31182070419e-16,             0, 0.0407913178205, -0.0231383964419, -0.0407913178205, 0.0231383964419, 0.837224900723, 0.837780416012, -0.837224900723, -0.837780416012, 2.54370661136e-17, 0.837628126144, 0.83747202158,             0, -0.837628126144, -0.83747202158,             0,             0,             0,             0, -0.00208545103669, 0.317181766033, 0.323854714632,             0, 0.317181766033, 0.323854714632
        0.925, -0.0415077321231, 0.0238156784326, 0.0415077321231, -0.0238156784326, -6.56869857783e-15, 3.47601311166e-18,             0, 314.972015381, -21.7939434052, 314.972015381, -21.7939434052, 62.2510032654, -21.4363079071, -62.2510032654, 21.4363079071, 4507.61328125,  2718.5769043, 4507.61328125,  2718.5769043,             6,             0, 1.77920527885e-17, -0.0247452706099,             0,             0,             0,             0,             0, -1.84557531306e-15,             0,             0,             0,             0,             0, -1.84557552482e-15, -0.0736621692777, 0.055470880121, 0.0736621692777, -0.055470880121, 15.0842981339, 15.0572948456, 15.0842981339, 15.0572948456, 30.7557373047, 0.0413049608469, -0.0413049608469, 4.29010202268e-15,             1, 119.743835449,           120, 119.743682861, 30.7555389404, 27.8456668854, 30.7555389404, 27.8456668854, 30.7557373047, 30.7555389404, 27.8456668854,  47.386806488, 30.7555389404, 27.8456668854, -2.9722769931e-16,             0, 0.041273150593, -0.0235100071877, -0.041273150593, 0.0235100071877, 0.837221384048, 0.837785005569, -0.837221384048, -0.837785005569, 1.77920527885e-17, 0.837629199028, 0.837471485138,             0, -0.837629199028, -0.837471485138,             0,             0,             0,             0, -0.00202433438972, 0.317180275917, 0.323855906725,             0, 0.317180275917, 0.323855906725
         0.95, -0.0419299602509, 0.0241435039788, 0.0419299602509, -0.0241435039788, -5.24979882225e-15, -1.93672455498e-16,             0, 313.192138672, -21.7577457428, 313.192138672, -21.7577457428, 62.9189300537, -21.722864151, -62.9189300537,  21.722864151, 4508.01953125, 2718.23486328, 4508.01953125, 2718.23486328,             6,             0, 1.47392716004e-17, -0.026452627033,             0,             0,             0,             0,             0, -1.70725197404e-15,             0,             0,             0,             0,             0, -1.70725218579e-15, -0.0744266211987, 0.0562923401594, 0.0744266211987, -0.0562923401594, 15.4926195145, 15.4644050598, 15.4926195145, 15.4644050598, 31.5873374939, 0.0417463555932, -0.0417463555932, 7.2071543205e-15,             1, 119.752471924,           120, 119.752334595, 31.5871295929, 28.6772575378, 31.5871295929, 28.6772575378, 31.5873374939, 31.5871276855, 28.6772575378, 48.2196044922, 31.5871276855, 28.6772575378, -4.43129150944e-16,             0, 0.0417119972408, -0.0238706935197, -0.0417119972408, 0.0238706935197, 0.837218165398, 0.837789177895, -0.837218165398, -0.837789177895, 1.47392716004e-17, 0.837630152702, 0.837471008301,             0, -0.837630152702, -0.837471008301,             0,             0,             0,             0, -0.00196780380793, 0.317178755999, 0.323857188225,             0, 0.317178755999, 0.323857188225
        0.975, -0.0423298589885, 0.0244090147316, 0.0423298589885, -0.0244090147316, -1.00058070824e-14, -3.4876123676e-16,             0, 311.356048584, -21.7202415466, 311.356048584, -21.7202415466, 63.5395240784, -21.9765796661, -63.5395240784, 21.9765796661, 4508.43603516, 2717.87670898, 4508.43603516, 2717.87670898,             6,             0, 1.40782302138e-17, -0.0280054360628,             0,             0,             0,             0,             0, -1.08773101762e-15,             0,             0,             0,             0,             0, -1.0877311235e-15, -0.0751353502274, 0.0570238009095, 0.0751353502274, -0.0570238009095, 15.9009637833, 15.8715438843, 15.9009637833, 15.8715438843, 32.4189949036, 0.0421644076705, -0.0421644076705, 1.06132203381e-14,             1, 119.760894775,           120, 119.760772705, 32.4187774658, 29.5089073181, 32.4187774658, 29.5089073181, 32.4189949036, 32.4187774658, 29.5089073181, 49.0524330139, 32.4187774658, 29.5089073181, -6.28317181812e-16,             0, 0.042127687484, -0.0241670031101, -0.042127687484, 0.0241670031101, 0.837215125561, 0.837792873383, -0.837215125561, -0.837792873383, 1.40782302138e-17, 0.837631046772, 0.837470531464,             0, -0.837631046772, -0.837470531464, 5.55111512313e-17,             0, 5.55111512313e-17,             0, -0.00191561167594, 0.317177206278, 0.323858499527,             0, 0.317177206278, 0.323858499527
            1, -0.0426848642528, 0.0246798824519, 0.0426848642528, -0.0246798824519, -1.05422330479e-14, -9.9052138731e-17,             0, 309.481292725, -21.6819000244, 309.481292725, -21.6819000244, 64.1111526489, -22.1947193146, -64.1111526489, 22.1947193146, 4508.86181641, 2717.51025391, 4508.86181641, 2717.51025391,             6,             0, 4.89622142563e-18, -0.0294134300202,             0,             0,             0,             0,             0, -1.0253417471e-15,             0,             0,             0,             0,             0, -1.02534185298e-15, -0.0757901445031, 0.057671200484, 0.0757901445031, -0.057671200484, 16.3093299866,  16.278711319, 16.3093299866,  16.278711319, 33.2507095337, 0.0425365865231, -0.0425365865231, 1.64306011152e-14,             1, 119.769096375,           120, 119.768981934, 33.2504806519, 30.3406143188, 33.2504806519, 30.3406143188, 33.2507095337, 33.2504806519, 30.3406143188, 49.8852882385, 33.2504806519, 30.3406143188, -9.11836791071e-16,             0, 0.0424976870418, -0.0244665779173, -0.0424976870418, 0.0244665779173, 0.837212324142, 0.837796151638, -0.837212324142, -0.837796151638, 4.89622142563e-18, 0.837631881237, 0.837470114231,             0, -0.837631881237, -0.837470114231,             0,             0,             0,             0, -0.00186751328874, 0.317175626755, 0.323859870434,             0, 0.317175626755, 0.323859870434
